{"version": 0.6, "generator": "Overpass API 0.7.62.7 375dc00a", "osm3s": {"timestamp_osm_base": "2025-08-05T15:48:02Z", "copyright": "The data included in this document is from www.openstreetmap.org. The data is made available under ODbL."}, "elements": [{"type": "node", "id": 28163654, "lat": 52.4755086, "lon": 13.3216779}, {"type": "node", "id": 268915158, "lat": 52.4767411, "lon": 13.3258251, "tags": {"addr:city": "Berlin", "addr:country": "DE", "addr:housenumber": "2", "addr:postcode": "12161", "addr:street": "Fehlerstra\u00dfe", "addr:suburb": "Friedenau", "amenity": "kindergarten", "check_date": "2025-07-11", "name": "Kita Fehlerstra\u00dfe 2", "wheelchair": "yes"}}, {"type": "node", "id": 268915167, "lat": 52.4685223, "lon": 13.3325044, "tags": {"addr:city": "Berlin", "addr:country": "DE", "addr:housenumber": "54", "addr:postcode": "12161", "addr:street": "Rheinstra\u00dfe", "addr:suburb": "Friedenau", "amenity": "kindergarten", "name": "Ganztagsbetreuung der Fl\u00e4ming-Grundschule", "opening_hours": "Mo-Fr 06:00-18:00", "operator": "Nachbarschaftsheim Sch\u00f6neberg e.V.", "operator:type": "charitable", "operator:wikidata": "Q130145053", "toilets:wheelchair": "yes", "website": "https://www.nbhs.de/familie-kinder-jugendliche/ganztagsbetreuung-an-schulen/flaeming-grundschule", "wheelchair": "yes"}}, {"type": "node", "id": 268915281, "lat": 52.4726664, "lon": 13.3246757, "tags": {"addr:city": "Berlin", "addr:country": "DE", "addr:housenumber": "9", "addr:postcode": "12161", "addr:street": "Wilhelmsh\u00f6her Stra\u00dfe", "addr:suburb": "Friedenau", "amenity": "kindergarten", "check_date": "2025-06-15", "name": "Kinderladen Atze + Co.", "operator": "Atze + Co. e.V.", "website": "https://www.atze-co.de"}}, {"type": "node", "id": 268915302, "lat": 52.4758505, "lon": 13.3258095, "tags": {"addr:city": "Berlin", "addr:country": "DE", "addr:housenumber": "6", "addr:postcode": "12161", "addr:street": "Mainauer Stra\u00dfe", "addr:suburb": "Friedenau", "amenity": "kindergarten", "check_date": "2024-03-19", "contact:phone": "+49 30 8529041", "contact:website": "http://www.berlinermalbuero.de/", "name": "Kinderladen Berliner Malb\u00fcro", "operator": "EKT Berliner Malb\u00fcro e.V."}}, {"type": "node", "id": 268915474, "lat": 52.4744996, "lon": 13.3355502, "tags": {"addr:city": "Berlin", "addr:country": "DE", "addr:housenumber": "30", "addr:postcode": "12159", "addr:street": "Lauterstra\u00dfe", "addr:suburb": "Friedenau", "amenity": "kindergarten", "name": "Kita Lauterstra\u00dfe 30", "operator": "Nachbarschaftsheim Sch\u00f6neberg e.V.", "operator:type": "charitable", "operator:wikidata": "Q130145053", "website": "https://kita-lauter30.nbhs.de/", "wheelchair": "no"}}, {"type": "node", "id": 268915904, "lat": 52.466434, "lon": 13.3345537, "tags": {"addr:city": "Berlin", "addr:housenumber": "30", "addr:postcode": "12161", "addr:street": "Holsteinische Stra\u00dfe", "addr:suburb": "Friedenau", "amenity": "kindergarten", "name": "Kita Holsteinische Stra\u00dfe", "operator": "Nachbarschaftsheim Sch\u00f6neberg e.V.", "operator:type": "charitable", "operator:wikidata": "Q130145053"}}, {"type": "node", "id": 268915906, "lat": 52.4766114, "lon": 13.3291425, "tags": {"addr:city": "Berlin", "addr:country": "DE", "addr:housenumber": "4", "addr:postcode": "12159", "addr:street": "Sieglindestra\u00dfe", "addr:suburb": "Friedenau", "amenity": "kindergarten", "name": "Kinderladen M\u00e4usebande", "operator": "EKT - Sch\u00f6neberger Eltern-Initiativ-Kita e.V.", "phone": "+4930 8518399", "website": "https://www.maeusebande-berlin.de", "wheelchair": "no"}}, {"type": "node", "id": 268915984, "lat": 52.4765521, "lon": 13.3296215, "tags": {"addr:city": "Berlin", "addr:country": "DE", "addr:housenumber": "8", "addr:postcode": "12159", "addr:street": "Sieglindestra\u00dfe", "addr:suburb": "Friedenau", "amenity": "kindergarten", "name": "Kinderladen mima", "operator": "Kita mima gGmbH", "website": "http://kita-mima.de/"}}, {"type": "node", "id": 268916046, "lat": 52.468925, "lon": 13.3235549, "tags": {"addr:city": "Berlin", "addr:country": "DE", "addr:housenumber": "1", "addr:postcode": "12161", "addr:street": "Hertelstra\u00dfe", "addr:suburb": "Friedenau", "amenity": "kindergarten", "name": "Friedenauer Kinder", "operator": "Friedenauer Kinder e.V.", "wheelchair": "no"}}, {"type": "node", "id": 268916102, "lat": 52.4698408, "lon": 13.3369397, "tags": {"addr:city": "Berlin", "addr:country": "DE", "addr:housenumber": "13-14", "addr:postcode": "12159", "addr:street": "Fregestra\u00dfe", "addr:suburb": "Friedenau", "amenity": "kindergarten", "name": "Kita Volltreffer", "operator": "Die Heilsarmee in Deutschland", "wheelchair": "no"}}, {"type": "node", "id": 268916133, "lat": 52.4770016, "lon": 13.3298436, "tags": {"addr:city": "Berlin", "addr:country": "DE", "addr:housenumber": "1", "addr:postcode": "12159", "addr:street": "Sieglindestra\u00dfe", "addr:suburb": "Friedenau", "amenity": "kindergarten", "contact:email": "info@waldorfkindergarten-friedenau.de", "contact:phone": "+49 30 85074-763", "contact:website": "http://waldorfkindergarten-friedenau.de/", "name": "Waldorfkindergarten Friedenau", "operator": "Elterninitiative f\u00fcr Waldorfp\u00e4dagogik in Sch\u00f6neberg e.V."}}, {"type": "node", "id": 268916134, "lat": 52.4737734, "lon": 13.335543, "tags": {"addr:city": "Berlin", "addr:country": "DE", "addr:housenumber": "26", "addr:postcode": "12159", "addr:street": "Lauterstra\u00dfe", "addr:suburb": "Friedenau", "amenity": "kindergarten", "check_date": "2024-06-04", "contact:website": "http://www.waldorfkiga-elfenreigen.de", "name": "Waldorfkindergarten Elfenreigen", "operator": "Waldorfkindergarten Elfenreigen e.V.", "wheelchair": "yes"}}, {"type": "node", "id": 268916219, "lat": 52.474448, "lon": 13.3366551, "tags": {"addr:city": "Berlin", "addr:country": "DE", "addr:housenumber": "18", "addr:postcode": "12159", "addr:street": "Stierstra\u00dfe", "addr:suburb": "Friedenau", "amenity": "kindergarten", "denomination": "protestant", "name": "Kita Philippus", "operator": "Evangelische Philippus-Nathanael-Kirchengemeinde", "religion": "christian", "wheelchair": "limited"}}, {"type": "node", "id": 268916822, "lat": 52.4757679, "lon": 13.3380896, "tags": {"addr:city": "Berlin", "addr:country": "DE", "addr:housenumber": "15a", "addr:postcode": "12159", "addr:street": "H\u00e4hnelstra\u00dfe", "addr:suburb": "Friedenau", "amenity": "kindergarten", "contact:phone": "+49 30 85073406", "contact:website": "http://www.mehrsprachige-kitas.de/berliner-spatzen", "language:de": "main", "language:ru": "main", "name": "Kita Berliner Spatzen", "operator": "Verein zur F\u00f6rderung der Mehrsprachigkeit e.V.", "wheelchair": "limited"}}, {"type": "node", "id": 271245589, "lat": 52.471562, "lon": 13.3287201}, {"type": "node", "id": 271245592, "lat": 52.4730807, "lon": 13.328096}, {"type": "node", "id": 271245593, "lat": 52.4730159, "lon": 13.3280045}, {"type": "node", "id": 275682702, "lat": 52.476605, "lon": 13.3212952}, {"type": "node", "id": 275682703, "lat": 52.4760356, "lon": 13.3212717}, {"type": "node", "id": 275682721, "lat": 52.4760341, "lon": 13.3216915}, {"type": "node", "id": 277606109, "lat": 52.4750769, "lon": 13.3234069, "tags": {"addr:city": "Berlin", "addr:country": "DE", "addr:housenumber": "10", "addr:postcode": "12161", "addr:street": "S\u00fcdwestkorso", "addr:suburb": "Friedenau", "amenity": "restaurant", "cuisine": "italian", "diet:vegetarian": "yes", "indoor_seating": "yes", "name": "Mario", "opening_hours": "Mo-Su 12:00-24:00", "outdoor_seating": "yes", "toilets:wheelchair": "no", "wheelchair": "no"}}, {"type": "node", "id": 277949462, "lat": 52.4681222, "lon": 13.3335724}, {"type": "node", "id": 286725465, "lat": 52.4754783, "lon": 13.3328399}, {"type": "node", "id": 286725467, "lat": 52.4759275, "lon": 13.3328472}, {"type": "node", "id": 286725468, "lat": 52.4760032, "lon": 13.335237}, {"type": "node", "id": 286725469, "lat": 52.4754513, "lon": 13.3352265}, {"type": "node", "id": 296242321, "lat": 52.4757712, "lon": 13.3347304}, {"type": "node", "id": 296242323, "lat": 52.4757487, "lon": 13.334586}, {"type": "node", "id": 296242324, "lat": 52.4756769, "lon": 13.3344495}, {"type": "node", "id": 296242326, "lat": 52.4756462, "lon": 13.3344582}, {"type": "node", "id": 296242327, "lat": 52.475573, "lon": 13.3346368}, {"type": "node", "id": 296242331, "lat": 52.4755546, "lon": 13.3347376}, {"type": "node", "id": 296242336, "lat": 52.4756066, "lon": 13.3348642}, {"type": "node", "id": 296242337, "lat": 52.4756281, "lon": 13.3348729}, {"type": "node", "id": 296242339, "lat": 52.4757161, "lon": 13.3348586}, {"type": "node", "id": 296242340, "lat": 52.4757647, "lon": 13.3346765}, {"type": "node", "id": 296242342, "lat": 52.475748, "lon": 13.3348368}, {"type": "node", "id": 296242345, "lat": 52.4757654, "lon": 13.3347943}, {"type": "node", "id": 297512115, "lat": 52.4675849, "lon": 13.3308517, "tags": {"addr:city": "Berlin", "addr:country": "DE", "addr:housenumber": "27", "addr:postcode": "12161", "addr:street": "Rheinstra\u00dfe", "addr:suburb": "Friedenau", "amenity": "pharmacy", "dispensing": "yes", "email": "hemmati.helianthus@yahoo.com", "healthcare": "pharmacy", "name": "Helianthus-Apotheke", "opening_hours": "Mo-Fr 08:30-19:00; Sa,Su off", "operator": "Sharareh Hemmati Sadeghi", "phone": "+49 30 89726932", "website": "https://www.helianthus-apotheke-berlin.de/", "wheelchair": "no"}}, {"type": "node", "id": 297512117, "lat": 52.4672318, "lon": 13.3279955, "tags": {"addr:city": "Berlin", "addr:country": "DE", "addr:housenumber": "92", "addr:postcode": "12161", "addr:street": "Bundesallee", "addr:suburb": "Friedenau", "amenity": "pharmacy", "check_date:opening_hours": "2022-05-06", "dispensing": "yes", "email": "service4u@burger-apotheke.de", "healthcare": "pharmacy", "name": "Burger Apotheke", "opening_hours": "Mo-Fr 08:30-19:00; Sa 08:30-14:00", "operator": "Norbert Peter e.K.", "phone": "+49 30 8516305", "website": "https://www.burger-apotheke.de/", "wheelchair": "limited"}}, {"type": "node", "id": 298264349, "lat": 52.4755635, "lon": 13.3346868}, {"type": "node", "id": 298264352, "lat": 52.4755703, "lon": 13.3348174}, {"type": "node", "id": 298264354, "lat": 52.4755841, "lon": 13.3348368}, {"type": "node", "id": 313220246, "lat": 52.4666443, "lon": 13.3249631, "tags": {"addr:city": "Berlin", "addr:country": "DE", "addr:housenumber": "3", "addr:postcode": "12161", "addr:street": "Hackerstra\u00dfe", "addr:suburb": "Friedenau", "amenity": "restaurant", "cuisine": "italian", "diet:vegan": "limited", "name": "Il Giardino", "opening_hours": "Mo-Su,PH 12:00-00:00", "outdoor_seating": "yes", "phone": "+49 30 98430257", "website": "https://il-giardino-berlin.com", "wheelchair": "no"}}, {"type": "node", "id": 345209600, "lat": 52.4673215, "lon": 13.3217196, "tags": {"addr:city": "Berlin", "addr:country": "DE", "addr:housenumber": "1", "addr:postcode": "12161", "addr:street": "Rheingaustra\u00dfe", "addr:suburb": "Friedenau", "amenity": "restaurant", "cuisine": "vietnamese", "name": "Nett"}}, {"type": "node", "id": 346135933, "lat": 52.4726746, "lon": 13.3217637, "tags": {"addr:city": "Berlin", "addr:country": "DE", "addr:housenumber": "14", "addr:postcode": "12161", "addr:street": "Rheingaustra\u00dfe", "addr:suburb": "Friedenau", "amenity": "restaurant", "check_date:opening_hours": "2025-06-27", "contact:facebook": "https://www.facebook.com/restaurantpinoberlin", "contact:instagram": "https://www.instagram.com/pino.berlin/", "cuisine": "italian", "diet:vegetarian": "yes", "indoor_seating": "yes", "name": "Pino", "opening_hours": "Tu-Su,PH 12:00-23:00", "outdoor_seating": "yes", "phone": "+49 30 34067407", "toilets:wheelchair": "no", "website": "https://restaurant-pino.de/", "wheelchair": "no"}}, {"type": "node", "id": 360698458, "lat": 52.466151, "lon": 13.3258696}, {"type": "node", "id": 360698461, "lat": 52.4661933, "lon": 13.3262682}, {"type": "node", "id": 360698463, "lat": 52.4659149, "lon": 13.3263251}, {"type": "node", "id": 360698464, "lat": 52.4654453, "lon": 13.3258673}, {"type": "node", "id": 360698465, "lat": 52.4655948, "lon": 13.325427}, {"type": "node", "id": 360698467, "lat": 52.4658564, "lon": 13.3256775}, {"type": "node", "id": 360698468, "lat": 52.4657902, "lon": 13.3258719}, {"type": "node", "id": 360698469, "lat": 52.4656009, "lon": 13.3256937}, {"type": "node", "id": 360698470, "lat": 52.4656692, "lon": 13.3254982}, {"type": "node", "id": 369109447, "lat": 52.467347, "lon": 13.3324554}, {"type": "node", "id": 369109448, "lat": 52.4670622, "lon": 13.3325581}, {"type": "node", "id": 369109452, "lat": 52.4677057, "lon": 13.3324307}, {"type": "node", "id": 369109460, "lat": 52.4678164, "lon": 13.3341421}, {"type": "node", "id": 427837447, "lat": 52.4677394, "lon": 13.332351}, {"type": "node", "id": 427837448, "lat": 52.4677345, "lon": 13.3323628}, {"type": "node", "id": 427837453, "lat": 52.4674058, "lon": 13.3324294}, {"type": "node", "id": 427837454, "lat": 52.467813, "lon": 13.3323172}, {"type": "node", "id": 427837455, "lat": 52.4678399, "lon": 13.3323471}, {"type": "node", "id": 529709164, "lat": 52.4713349, "lon": 13.3371272, "tags": {"addr:city": "Berlin", "addr:country": "DE", "addr:housenumber": "6", "addr:postcode": "12159", "addr:street": "Fregestra\u00dfe", "addr:suburb": "Friedenau", "brand": "EDEKA", "brand:wikidata": "Q701755", "brand:wikipedia": "de:Edeka", "check_date:opening_hours": "2024-04-06", "name": "EDEKA Brabanski", "opening_hours": "Mo-Sa 07:00-20:00", "operator": "J\u00fcrgen Brabanski", "payment:credit_cards": "yes", "payment:debit_cards": "yes", "phone": "+49 30 8511139", "shop": "supermarket", "website": "https://www.edeka.de/eh/minden-hannover/edeka-brabanski-fregestr.-6/index.jsp", "wheelchair": "limited"}}, {"type": "node", "id": 537753668, "lat": 52.4716365, "lon": 13.3350372, "tags": {"addr:city": "Berlin", "addr:country": "DE", "addr:housenumber": "17", "addr:postcode": "12159", "addr:street": "Lauterstra\u00dfe", "addr:suburb": "Friedenau", "brand": "Netto Marken-Discount", "brand:wikidata": "Q879858", "brand:wikipedia": "de:Netto Marken-Discount", "check_date": "2023-06-08", "check_date:opening_hours": "2023-10-17", "internet_access": "wlan", "name": "Netto Marken-Discount", "opening_hours": "Mo-Sa 07:00-22:00", "phone": "+49 800 2000015", "shop": "supermarket", "website": "https://www.netto-online.de/filialen/Berlin-Schoeneberg/Lauterstr-17/7763/", "wheelchair": "yes"}}, {"type": "node", "id": 544823648, "lat": 52.4785665, "lon": 13.3421958}, {"type": "node", "id": 544823662, "lat": 52.4786204, "lon": 13.3421227}, {"type": "node", "id": 544823691, "lat": 52.4788329, "lon": 13.3421472}, {"type": "node", "id": 544823702, "lat": 52.4785653, "lon": 13.3422625}, {"type": "node", "id": 544823720, "lat": 52.4788743, "lon": 13.3422698}, {"type": "node", "id": 544823747, "lat": 52.4786587, "lon": 13.3426486}, {"type": "node", "id": 544823784, "lat": 52.4786192, "lon": 13.3424985}, {"type": "node", "id": 544823829, "lat": 52.4788273, "lon": 13.3426747}, {"type": "node", "id": 544823859, "lat": 52.478763, "lon": 13.3431736}, {"type": "node", "id": 544823875, "lat": 52.4786756, "lon": 13.3431492}, {"type": "node", "id": 544823891, "lat": 52.4786833, "lon": 13.3429049}, {"type": "node", "id": 546914181, "lat": 52.4720321, "lon": 13.3280002}, {"type": "node", "id": 691484670, "lat": 52.4681185, "lon": 13.3320209, "tags": {"addr:city": "Berlin", "addr:country": "DE", "addr:housenumber": "52a", "addr:postcode": "12161", "addr:street": "Rheinstra\u00dfe", "addr:suburb": "Friedenau", "amenity": "pharmacy", "check_date:opening_hours": "2024-10-23", "dispensing": "yes", "healthcare": "pharmacy", "name": "Dr. Krachts Apotheke", "opening_hours": "Mo-Fr 08:30-19:00; Sa 09:00-16:00", "operator": "Abdolreza Morad-Reza", "phone": "+49 30 8515565", "website": "http://drkrachtsapotheke.de/", "wheelchair": "no"}}, {"type": "node", "id": 691484692, "lat": 52.4689488, "lon": 13.3336209, "tags": {"amenity": "restaurant", "cuisine": "german", "diet:vegetarian": "no", "name": "Chaplin", "opening_hours": "We-Su 16:00-23:00+", "website": "http://www.chaplin-friedenau.de/", "wheelchair": "limited"}}, {"type": "node", "id": 691484696, "lat": 52.469774, "lon": 13.3330975, "tags": {"addr:city": "Berlin", "addr:country": "DE", "addr:housenumber": "14", "addr:postcode": "12159", "addr:street": "Rheinstra\u00dfe", "addr:suburb": "Friedenau", "brand": "REWE", "brand:wikidata": "Q16968817", "brand:wikipedia": "de:Rewe", "name": "REWE", "opening_hours": "Mo-Sa 06:00-23:30", "operator": "REWE Neda Musura oHG", "shop": "supermarket", "website": "https://www.rewe.de/angebote/berlin-friedenau/4040239/rewe-markt-rheinstr-14/", "wheelchair": "yes"}}, {"type": "node", "id": 691484842, "lat": 52.4723157, "lon": 13.3350244, "tags": {"addr:city": "Berlin", "addr:country": "DE", "addr:housenumber": "14/15", "addr:postcode": "12159", "addr:street": "Lauterstra\u00dfe", "addr:suburb": "Friedenau", "amenity": "restaurant", "check_date": "2023-02-02", "contact:facebook": "100039361519920", "contact:instagram": "luladeli_berlin", "diet:vegan": "yes", "diet:vegetarian": "yes", "indoor_seating": "yes", "name": "LuLa Deli & Grill", "opening_hours": "Mo-Su 09:00-24:00", "outdoor_seating": "yes", "payment:credit_cards": "yes", "payment:debit_cards": "yes", "toilets:wheelchair": "yes", "website": "https://www.lula-berlin.de/", "website:menu": "https://www.lula-berlin.de/menu-restaurant", "wheelchair": "limited"}}, {"type": "node", "id": 726786332, "lat": 52.4683534, "lon": 13.3322792, "tags": {"addr:city": "Berlin", "addr:country": "DE", "addr:housenumber": "53", "addr:postcode": "12161", "addr:street": "Rheinstra\u00dfe", "addr:suburb": "Friedenau", "amenity": "restaurant", "check_date:opening_hours": "2025-04-24", "cuisine": "italian", "name": "Brigantino", "opening_hours": "Mo-Sa 17:00+", "phone": "+49308514383", "website": "http://www.brigantino.de/", "wheelchair": "yes"}}, {"type": "node", "id": 833176050, "lat": 52.4659019, "lon": 13.3277211, "tags": {"addr:city": "Berlin", "addr:housenumber": "1", "addr:postcode": "12161", "addr:street": "Walther-Schreiber-Platz", "brand": "Rewe", "brand:wikidata": "Q16968817", "brand:wikipedia": "de:Rewe", "level": "-1", "name": "REWE", "opening_hours": "Mo-Sa 08:00-21:00", "phone": "+49 30 81486745", "shop": "supermarket", "website": "https://www.rewe.de/marktseite/berlin-friedenau/4040229/rewe-markt-walther-schreiber-platz-1/", "wheelchair": "yes"}}, {"type": "node", "id": 884222103, "lat": 52.4676683, "lon": 13.3315808, "tags": {"addr:city": "Berlin", "addr:country": "DE", "addr:housenumber": "50", "addr:postcode": "12161", "addr:street": "Rheinstra\u00dfe", "addr:suburb": "Friedenau", "amenity": "restaurant", "cuisine": "vietnamese", "indoor_seating": "yes", "name": "Lac Viet", "opening_hours": "Mo-Sa 11:30-22:00; Su off", "outdoor_seating": "yes", "phone": "+49 30 84183160", "website": "https://lacvietinberlin.de", "wheelchair": "no"}}, {"type": "node", "id": 911994246, "lat": 52.4719991, "lon": 13.3350409, "tags": {"addr:city": "Berlin", "addr:country": "DE", "addr:housenumber": "16", "addr:postcode": "12159", "addr:street": "Lauterstra\u00dfe", "addr:suburb": "Friedenau", "amenity": "restaurant", "check_date": "2023-06-25", "cuisine": "vietnamese", "diet:vegetarian": "yes", "indoor_seating": "yes", "name": "Tra My", "opening_hours": "Mo-Fr 11:30-22:00; Su,PH 13:30-22:00", "outdoor_seating": "yes", "phone": "+49 30 81486115", "website": "https://www.tra-my-restaurant.de", "wheelchair": "limited"}}, {"type": "node", "id": 961501270, "lat": 52.4706435, "lon": 13.3294191, "tags": {"addr:city": "Berlin", "addr:country": "DE", "addr:housenumber": "4", "addr:postcode": "12161", "addr:street": "Schmiljanstra\u00dfe", "addr:suburb": "Friedenau", "amenity": "restaurant", "contact:email": "mamadut.de@gmail.com", "contact:facebook": "https://www.facebook.com/people/Mama-%C4%91%C3%BAt/100093431886097/", "contact:phone": "+49 30 30103898", "contact:website": "https://www.mamadut-berlin.de/", "cuisine": "sushi;vietnamese", "indoor_seating": "yes", "name": "Mama dut", "opening_hours": "Su-Fr 11:00-22:00", "outdoor_seating": "yes", "phone": "+49 30 30103898"}}, {"type": "node", "id": 1137565398, "lat": 52.4752501, "lon": 13.3330522, "tags": {"addr:city": "Berlin", "addr:country": "DE", "addr:housenumber": "10", "addr:postcode": "12159", "addr:street": "Perelsplatz", "addr:suburb": "Friedenau", "amenity": "kindergarten", "name": "Kinderladen Hauruck", "operator": "EKT - Hauruck e.V.", "website": "https://www.kinderladen-hauruck.de/", "wheelchair": "yes"}}, {"type": "node", "id": 1137567654, "lat": 52.4742961, "lon": 13.3329289, "tags": {"addr:city": "Berlin", "addr:country": "DE", "addr:housenumber": "90", "addr:postcode": "12159", "addr:street": "Handjerystra\u00dfe", "addr:suburb": "Friedenau", "amenity": "cafe", "check_date:opening_hours": "2023-09-17", "cuisine": "austrian", "drink:wine": "retail", "indoor_seating": "yes", "name": "Weinbeisser", "opening_hours:signed": "no", "outdoor_seating": "yes", "shop": "alcohol", "survey:date": "2013-08-05", "website": "https://weinbeisser-berlin.de/", "wheelchair": "no"}}, {"type": "node", "id": 1154155373, "lat": 52.4695001, "lon": 13.324365}, {"type": "node", "id": 1154155463, "lat": 52.4692195, "lon": 13.3235008}, {"type": "node", "id": 1154155478, "lat": 52.4694021, "lon": 13.3245211}, {"type": "node", "id": 1154155517, "lat": 52.4697501, "lon": 13.3239351}, {"type": "node", "id": 1154155525, "lat": 52.4693642, "lon": 13.3245827}, {"type": "node", "id": 1193599753, "lat": 52.4726533, "lon": 13.3213445}, {"type": "node", "id": 1193599758, "lat": 52.4727099, "lon": 13.3214108}, {"type": "node", "id": 1193599768, "lat": 52.4727438, "lon": 13.3213329}, {"type": "node", "id": 1193599769, "lat": 52.4726873, "lon": 13.3212665}, {"type": "node", "id": 1251452236, "lat": 52.4712686, "lon": 13.3298833}, {"type": "node", "id": 1251452388, "lat": 52.4714021, "lon": 13.3298907}, {"type": "node", "id": 1257246443, "lat": 52.4717255, "lon": 13.3202835, "tags": {"addr:city": "Berlin", "addr:country": "DE", "addr:housenumber": "60", "addr:postcode": "12161", "addr:street": "S\u00fcdwestkorso", "addr:suburb": "Friedenau", "amenity": "restaurant", "cuisine": "pizza", "name": "Cremina", "wheelchair": "limited"}}, {"type": "node", "id": 1259384898, "lat": 52.4713962, "lon": 13.3298909}, {"type": "node", "id": 1259397081, "lat": 52.4721321, "lon": 13.3291506}, {"type": "node", "id": 1259397083, "lat": 52.4719157, "lon": 13.3292885}, {"type": "node", "id": 1259397085, "lat": 52.4719121, "lon": 13.3296853}, {"type": "node", "id": 1259397088, "lat": 52.4719157, "lon": 13.3291595}, {"type": "node", "id": 1259397101, "lat": 52.4721324, "lon": 13.3295203}, {"type": "node", "id": 1259397106, "lat": 52.4719157, "lon": 13.3293511}, {"type": "node", "id": 1259423611, "lat": 52.4732251, "lon": 13.3213552, "tags": {"addr:city": "Berlin", "addr:country": "DE", "addr:housenumber": "15", "addr:postcode": "12161", "addr:street": "S\u00fcdwestkorso", "addr:suburb": "Friedenau", "amenity": "restaurant", "check_date:opening_hours": "2025-03-31", "cuisine": "greek", "diet:vegetarian": "yes", "indoor_seating": "yes", "name": "Achilles Taverna", "opening_hours": "Mo-Su,PH 12:00-23:00", "outdoor_seating": "yes", "phone": "+49 30 8214455", "website": "https://www.achilles-taverna.de/", "wheelchair": "limited"}}, {"type": "node", "id": 1288039287, "lat": 52.4695494, "lon": 13.3306102}, {"type": "node", "id": 1288039345, "lat": 52.4696344, "lon": 13.3305242}, {"type": "node", "id": 1288039477, "lat": 52.4694778, "lon": 13.3306901}, {"type": "node", "id": 1288125820, "lat": 52.4746982, "lon": 13.3271556}, {"type": "node", "id": 1294273280, "lat": 52.4655619, "lon": 13.3286246, "tags": {"addr:city": "Berlin", "addr:country": "DE", "addr:housenumber": "104\u2013105", "addr:postcode": "12161", "addr:street": "Bundesallee", "addr:suburb": "Friedenau", "brand": "Bio Company", "brand:wikidata": "Q864179", "brand:wikipedia": "de:Bio Company", "check_date:opening_hours": "2023-04-06", "name": "Bio Company", "opening_hours": "Mo-Sa 08:00-20:00; PH off", "organic": "only", "payment:apple_pay": "yes", "payment:cash": "yes", "payment:girocard": "yes", "payment:google_pay": "yes", "payment:mastercard": "yes", "payment:visa": "yes", "shop": "supermarket", "website": "https://www.biocompany.de/bio-company-markt-finden/l/berlin/bundesallee-104-105/2941675", "wheelchair": "yes", "wheelchair:description": "ebenerdig, automatische T\u00fcren"}}, {"type": "node", "id": 1312749736, "lat": 52.4718442, "lon": 13.3238867}, {"type": "node", "id": 1312749742, "lat": 52.4716609, "lon": 13.3242732}, {"type": "node", "id": 1312749744, "lat": 52.4717951, "lon": 13.3244631}, {"type": "node", "id": 1312749745, "lat": 52.4713265, "lon": 13.324462}, {"type": "node", "id": 1312749748, "lat": 52.4712884, "lon": 13.3243708}, {"type": "node", "id": 1312749750, "lat": 52.4722692, "lon": 13.3202353}, {"type": "node", "id": 1312749752, "lat": 52.4722769, "lon": 13.3202051}, {"type": "node", "id": 1312749755, "lat": 52.4714607, "lon": 13.3239716}, {"type": "node", "id": 1312749757, "lat": 52.4712907, "lon": 13.3238491}, {"type": "node", "id": 1312749761, "lat": 52.4712515, "lon": 13.3240377}, {"type": "node", "id": 1312749763, "lat": 52.4714503, "lon": 13.3242207}, {"type": "node", "id": 1312749768, "lat": 52.4712611, "lon": 13.3242475}, {"type": "node", "id": 1312749770, "lat": 52.4717987, "lon": 13.3237823}, {"type": "node", "id": 1312749772, "lat": 52.4727082, "lon": 13.3202275}, {"type": "node", "id": 1312749776, "lat": 52.4713554, "lon": 13.3237262}, {"type": "node", "id": 1312749778, "lat": 52.4718693, "lon": 13.324247}, {"type": "node", "id": 1312749780, "lat": 52.4716764, "lon": 13.3236727}, {"type": "node", "id": 1312749782, "lat": 52.4714451, "lon": 13.3245975}, {"type": "node", "id": 1312749784, "lat": 52.4717262, "lon": 13.3245543}, {"type": "node", "id": 1312749788, "lat": 52.4716632, "lon": 13.3239688}, {"type": "node", "id": 1312749790, "lat": 52.4718486, "lon": 13.3243334}, {"type": "node", "id": 1312749793, "lat": 52.4726553, "lon": 13.320707}, {"type": "node", "id": 1312749795, "lat": 52.4716639, "lon": 13.3245659}, {"type": "node", "id": 1312749797, "lat": 52.4714584, "lon": 13.3236638}, {"type": "node", "id": 1312749801, "lat": 52.4714053, "lon": 13.3236681}, {"type": "node", "id": 1312749803, "lat": 52.4718637, "lon": 13.3240035}, {"type": "node", "id": 1312749805, "lat": 52.471742, "lon": 13.3236923}, {"type": "node", "id": 1335624990, "lat": 52.4692226, "lon": 13.322823}, {"type": "node", "id": 1337608293, "lat": 52.469504, "lon": 13.3243587}, {"type": "node", "id": 1337608301, "lat": 52.4692206, "lon": 13.323237}, {"type": "node", "id": 1338159720, "lat": 52.468298, "lon": 13.3212561}, {"type": "node", "id": 1338159736, "lat": 52.4682983, "lon": 13.3210771}, {"type": "node", "id": 1348082099, "lat": 52.4667711, "lon": 13.3280162, "tags": {"addr:city": "Berlin", "addr:country": "DE", "addr:housenumber": "93", "addr:postcode": "12161", "addr:street": "Bundesallee", "addr:suburb": "Friedenau", "amenity": "restaurant", "cuisine": "korean", "name": "Arirang Matzip", "opening_hours": "Mo-Sa 12:00-16:00,16:30-22:00; PH,Su 12:00-15:30,16:00-21:00", "wheelchair": "limited"}}, {"type": "node", "id": 1354602117, "lat": 52.4731384, "lon": 13.3368295, "tags": {"addr:city": "Berlin", "addr:country": "DE", "addr:housenumber": "78", "addr:postcode": "12159", "addr:street": "Hauptstra\u00dfe", "addr:suburb": "Friedenau", "brand": "LPG BioMarkt", "brand:wikidata": "Q107983669", "check_date:opening_hours": "2022-05-29", "name": "LPG BioMarkt", "opening_hours": "Mo-Sa 08:00-21:00", "organic": "only", "phone": "+49 30 55651008", "shop": "supermarket", "website": "http://www.lpg-naturkost.de", "wheelchair": "yes", "wheelchair:description": "mit Behindertengerechtem WC und Parkplatz mit Rampenzugang"}}, {"type": "node", "id": 1392848034, "lat": 52.4760183, "lon": 13.3328486}, {"type": "node", "id": 1392848039, "lat": 52.4768193, "lon": 13.3339598}, {"type": "node", "id": 1392848041, "lat": 52.4768481, "lon": 13.3328622}, {"type": "node", "id": 1397070343, "lat": 52.4674412, "lon": 13.3313339, "tags": {"addr:city": "Berlin", "addr:country": "DE", "addr:housenumber": "49", "addr:postcode": "12161", "addr:street": "Rheinstra\u00dfe", "addr:suburb": "Friedenau", "amenity": "restaurant", "cuisine": "asian", "diet:vegan": "yes", "diet:vegetarian": "yes", "indoor_seating": "yes", "name": "Asia Time", "opening_hours": "Tu-Su 12:00-22:00", "outdoor_seating": "yes", "phone": "+49 30 23616813", "website": "http://asiatime-berlin.de", "wheelchair": "no"}}, {"type": "node", "id": 1399712719, "lat": 52.4657624, "lon": 13.3296578, "tags": {"addr:city": "Berlin", "addr:country": "DE", "addr:housenumber": "43", "addr:postcode": "12161", "addr:street": "Rheinstra\u00dfe", "addr:suburb": "Friedenau", "amenity": "restaurant", "check_date:opening_hours": "2025-04-18", "cuisine": "chinese", "name": "Bambus China Restaurant", "opening_hours:signed": "no", "wheelchair": "no"}}, {"type": "node", "id": 1433660050, "lat": 52.474654, "lon": 13.3373128}, {"type": "node", "id": 1468082518, "lat": 52.467044, "lon": 13.3299032, "tags": {"addr:city": "Berlin", "addr:country": "DE", "addr:housenumber": "30", "addr:postcode": "12161", "addr:street": "Rheinstra\u00dfe", "addr:suburb": "Friedenau", "brand": "Rewe", "brand:wikidata": "Q16968817", "brand:wikipedia": "de:Rewe", "contact:phone": "+49 30 85074370", "contact:website": "https://www.rewe.de/marktseite/berlin/1350073/rewe-city-rheinstrasse-30/", "name": "REWE City", "opening_hours": "Mo-Sa 06:00-22:00", "shop": "supermarket", "wheelchair": "yes"}}, {"type": "node", "id": 1493204332, "lat": 52.4689691, "lon": 13.3239201}, {"type": "node", "id": 1493204335, "lat": 52.4692233, "lon": 13.3215785}, {"type": "node", "id": 1493204337, "lat": 52.4701075, "lon": 13.3239413}, {"type": "node", "id": 1493204338, "lat": 52.4697595, "lon": 13.3225427}, {"type": "node", "id": 1493204340, "lat": 52.4702488, "lon": 13.3228659}, {"type": "node", "id": 1493204342, "lat": 52.470258, "lon": 13.3215987}, {"type": "node", "id": 1493204348, "lat": 52.4714529, "lon": 13.3228859}, {"type": "node", "id": 1493204353, "lat": 52.4714635, "lon": 13.3216186}, {"type": "node", "id": 1493204363, "lat": 52.4716976, "lon": 13.3242183}, {"type": "node", "id": 1493204368, "lat": 52.4718625, "lon": 13.3242211}, {"type": "node", "id": 1496184518, "lat": 52.4665036, "lon": 13.3279832, "tags": {"addr:housenumber": "95", "addr:postcode": "12161", "addr:street": "Bundesallee", "amenity": "restaurant", "check_date": "2024-03-14", "cuisine": "thai", "diet:vegetarian": "yes", "name": "Ratana", "opening_hours": "Tu-Fr 16:00-22:00; Sa,Su 12:00-22:00", "payment:girocard": "yes", "phone": "+49-30-85103039", "website": "http://restaurant-cafe-ratana.de/", "wheelchair": "yes"}}, {"type": "node", "id": 1585540540, "lat": 52.4733246, "lon": 13.3221536, "tags": {"addr:city": "Berlin", "addr:country": "DE", "addr:postcode": "12161", "addr:street": "S\u00fcdwestkorso", "addr:suburb": "Friedenau", "amenity": "bar", "check_date:opening_hours": "2024-03-01", "contact:facebook": "https://www.facebook.com/people/Cafe-Bar-S%C3%BCdwest/100057118884738/", "indoor_seating": "yes", "name": "Bar S\u00fcdwest", "opening_hours": "We-Mo 19:00-00:00+", "opening_hours:signed": "no", "outdoor_seating": "yes", "phone": "+49 30 82701300", "wheelchair": "limited"}}, {"type": "node", "id": 1610303893, "lat": 52.4754899, "lon": 13.3305423}, {"type": "node", "id": 1610303919, "lat": 52.4757472, "lon": 13.330966}, {"type": "node", "id": 1610303922, "lat": 52.475696, "lon": 13.3302142}, {"type": "node", "id": 1610303941, "lat": 52.4759478, "lon": 13.3305502}, {"type": "node", "id": 1631554531, "lat": 52.4672655, "lon": 13.331463, "tags": {"addr:city": "Berlin", "addr:country": "DE", "addr:housenumber": "27", "addr:postcode": "12161", "addr:street": "Dickhardtstra\u00dfe", "addr:suburb": "Friedenau", "amenity": "restaurant", "check_date:opening_hours": "2025-04-24", "cuisine": "portuguese", "designation": "Portugiesisch", "name": "Carlos", "opening_hours": "Tu-Sa 17:30-24:00", "phone": "+49 30 8522660", "website": "https://www.carlos-tapas.de/", "wheelchair": "no"}}, {"type": "node", "id": 1631766795, "lat": 52.4652934, "lon": 13.3240569}, {"type": "node", "id": 1631766800, "lat": 52.4660548, "lon": 13.3258684}, {"type": "node", "id": 1639361928, "lat": 52.4699252, "lon": 13.3253753, "tags": {"addr:city": "Berlin", "addr:country": "DE", "addr:housenumber": "10", "addr:postcode": "12161", "addr:street": "Go\u00dflerstra\u00dfe", "addr:suburb": "Friedenau", "amenity": "restaurant", "cuisine": "italian", "indoor_seating": "yes", "name": "I Moirtifami", "opening_hours": "Mo-Sa 11:30-22:00", "outdoor_seating": "yes", "phone": "+49 30 85401034", "smoking": "outside", "wheelchair": "limited"}}, {"type": "node", "id": 1639362080, "lat": 52.4713263, "lon": 13.3332245, "tags": {"addr:city": "Berlin", "addr:country": "DE", "addr:housenumber": "77", "addr:postcode": "12159", "addr:street": "Handjerystra\u00dfe", "addr:suburb": "Friedenau", "amenity": "restaurant", "check_date:opening_hours": "2022-04-23", "cuisine": "swabian", "indoor_seating": "yes", "name": "Restaurant Gl\u00fchwurm", "opening_hours": "Mo-Su 12:00-01:00", "outdoor_seating": "yes", "phone": "+49 30 85102598", "website": "https://www.restaurant-gluehwurm.de/", "wheelchair": "no"}}, {"type": "node", "id": 1669112825, "lat": 52.4766835, "lon": 13.3203945}, {"type": "node", "id": 1669181389, "lat": 52.4753048, "lon": 13.332266}, {"type": "node", "id": 1669181404, "lat": 52.475366, "lon": 13.3324485}, {"type": "node", "id": 1669181407, "lat": 52.4753548, "lon": 13.3323481}, {"type": "node", "id": 1669181409, "lat": 52.4751854, "lon": 13.3326116}, {"type": "node", "id": 1669181444, "lat": 52.4752611, "lon": 13.3326142}, {"type": "node", "id": 1703401473, "lat": 52.471767, "lon": 13.3235696, "tags": {"addr:city": "Berlin", "addr:country": "DE", "addr:housenumber": "58", "addr:postcode": "12161", "addr:street": "Stubenrauchstra\u00dfe", "addr:suburb": "Friedenau", "amenity": "pharmacy", "check_date:opening_hours": "2024-10-31", "dispensing": "yes", "healthcare": "pharmacy", "name": "Apotheke am Schillerplatz", "opening_hours": "Mo-Fr 08:30-18:30; Sa 09:00-13:00", "wheelchair": "no", "wheelchair:description": "2 Stufen am Eingang"}}, {"type": "node", "id": 1819928545, "lat": 52.4734406, "lon": 13.3275613, "tags": {"addr:city": "Berlin", "addr:country": "DE", "addr:housenumber": "3", "addr:postcode": "12161", "addr:street": "G\u00f6rresstra\u00dfe", "addr:suburb": "Friedenau", "brand": "Nahkauf", "brand:wikidata": "Q57515238", "check_date:opening_hours": "2025-04-21", "name": "Nahkauf", "opening_hours": "Mo-Sa 08:00-20:00", "shop": "supermarket", "wheelchair": "yes"}}, {"type": "node", "id": 1847021065, "lat": 52.4725977, "lon": 13.3336141}, {"type": "node", "id": 1847021066, "lat": 52.4725984, "lon": 13.333402}, {"type": "node", "id": 1847021089, "lat": 52.4729594, "lon": 13.3336174}, {"type": "node", "id": 1847021095, "lat": 52.4729601, "lon": 13.3334054}, {"type": "node", "id": 1847032323, "lat": 52.4721352, "lon": 13.3321298}, {"type": "node", "id": 1847032324, "lat": 52.4721324, "lon": 13.332482}, {"type": "node", "id": 1847032325, "lat": 52.4722985, "lon": 13.3323233}, {"type": "node", "id": 1847032327, "lat": 52.4722972, "lon": 13.3324855}, {"type": "node", "id": 1847032329, "lat": 52.4724125, "lon": 13.3321358}, {"type": "node", "id": 1847032331, "lat": 52.4724117, "lon": 13.3322299, "tags": {"entrance": "yes"}}, {"type": "node", "id": 1847032333, "lat": 52.472411, "lon": 13.3323257}, {"type": "node", "id": 1851364937, "lat": 52.4727451, "lon": 13.3291806, "tags": {"addr:city": "Berlin", "addr:country": "DE", "addr:housenumber": "14", "addr:postcode": "12161", "addr:street": "Friedrich-Wilhelm-Platz", "addr:suburb": "Friedenau", "amenity": "restaurant", "diet:vegan": "yes", "diet:vegetarian": "yes", "indoor_seating": "yes", "name": "Tomasa", "opening_hours": "Mo-Su,PH 09:00-24:00", "outdoor_seating": "yes", "toilets:wheelchair": "yes", "website": "http://www.tomasa.de/", "wheelchair": "yes"}}, {"type": "node", "id": 1861406622, "lat": 52.4676702, "lon": 13.3224177}, {"type": "node", "id": 1861406624, "lat": 52.4676714, "lon": 13.322218}, {"type": "node", "id": 1861406626, "lat": 52.467726, "lon": 13.3221638}, {"type": "node", "id": 1861406628, "lat": 52.467726, "lon": 13.322218}, {"type": "node", "id": 1861406630, "lat": 52.4677965, "lon": 13.3228489}, {"type": "node", "id": 1861406633, "lat": 52.4678626, "lon": 13.3227998, "tags": {"access": "yes", "addr:city": "Berlin", "addr:country": "DE", "barrier": "gate", "entrance": "yes"}}, {"type": "node", "id": 1861406659, "lat": 52.4679978, "lon": 13.3221545}, {"type": "node", "id": 1861406660, "lat": 52.467998, "lon": 13.3223159, "tags": {"access": "yes", "addr:city": "Berlin", "addr:country": "DE", "barrier": "gate", "entrance": "yes"}}, {"type": "node", "id": 1861406661, "lat": 52.4679989, "lon": 13.3227836}, {"type": "node", "id": 1962197239, "lat": 52.4786739, "lon": 13.3427433}, {"type": "node", "id": 1962197240, "lat": 52.4786778, "lon": 13.3431156}, {"type": "node", "id": 1962242753, "lat": 52.4784034, "lon": 13.3385524}, {"type": "node", "id": 1962242754, "lat": 52.4784223, "lon": 13.3385551}, {"type": "node", "id": 1962242755, "lat": 52.4784248, "lon": 13.3407073}, {"type": "node", "id": 1962242756, "lat": 52.4784355, "lon": 13.3409758}, {"type": "node", "id": 1962242757, "lat": 52.4784667, "lon": 13.3414035}, {"type": "node", "id": 1962242758, "lat": 52.4785321, "lon": 13.3398298}, {"type": "node", "id": 1962242759, "lat": 52.4785366, "lon": 13.3420161}, {"type": "node", "id": 1962242760, "lat": 52.478539, "lon": 13.3418394}, {"type": "node", "id": 1962242761, "lat": 52.4785505, "lon": 13.3419662}, {"type": "node", "id": 1962242762, "lat": 52.4788201, "lon": 13.3419838}, {"type": "node", "id": 1962242763, "lat": 52.4788752, "lon": 13.3420485}, {"type": "node", "id": 1962242764, "lat": 52.4789253, "lon": 13.3404482}, {"type": "node", "id": 1962242765, "lat": 52.4789376, "lon": 13.3415344}, {"type": "node", "id": 1962242766, "lat": 52.4789483, "lon": 13.340768}, {"type": "node", "id": 1962242767, "lat": 52.4789491, "lon": 13.3413752}, {"type": "node", "id": 1962242768, "lat": 52.4789549, "lon": 13.3409475}, {"type": "node", "id": 1962242769, "lat": 52.4789562, "lon": 13.3410859}, {"type": "node", "id": 1962248045, "lat": 52.4785837, "lon": 13.3421566}, {"type": "node", "id": 1962248046, "lat": 52.4788452, "lon": 13.3421584}, {"type": "node", "id": 1962248047, "lat": 52.4788639, "lon": 13.342185}, {"type": "node", "id": 1962248048, "lat": 52.4788757, "lon": 13.3422272}, {"type": "node", "id": 1962769142, "lat": 52.4770202, "lon": 13.3287885, "tags": {"addr:city": "Berlin", "addr:country": "DE", "addr:housenumber": "142", "addr:postcode": "12161", "addr:street": "Bundesallee", "addr:suburb": "Friedenau", "amenity": "cafe", "contact:facebook": "https://www.facebook.com/CafeAdeleFriedenau", "contact:instagram": "https://www.instagram.com/cafeadeleberlin/", "diet:vegetarian": "yes", "indoor_seating": "yes", "name": "Caf\u00e9 Ad\u00e8le", "opening_hours": "Mar Su[-1]-Oct Su[-1] -1 day Tu-Su 11:00-19:00, Oct Su[-1]-Mar Su[-1] -1 day Tu-Su 10:00-18:00", "outdoor_seating": "yes", "phone": "+49 176 70067741", "website": "https://cafeadele.de/", "wheelchair": "limited"}}, {"type": "node", "id": 2061284772, "lat": 52.4704068, "lon": 13.3228685, "tags": {"entrance": "yes"}}, {"type": "node", "id": 2061284774, "lat": 52.4701185, "lon": 13.3221081}, {"type": "node", "id": 2061284775, "lat": 52.4701237, "lon": 13.321595}, {"type": "node", "id": 2061284777, "lat": 52.4699636, "lon": 13.3215938, "tags": {"entrance": "main"}}, {"type": "node", "id": 2061284781, "lat": 52.4702529, "lon": 13.3222529, "tags": {"addr:city": "Berlin", "addr:country": "DE", "addr:housenumber": "3 - 4", "addr:postcode": "12161", "addr:street": "Schwalbacher Stra\u00dfe", "addr:suburb": "Friedenau", "entrance": "main", "name": "Rheingau-Oberschule", "ref": "07Y03"}}, {"type": "node", "id": 2061284782, "lat": 52.4698075, "lon": 13.3215926}, {"type": "node", "id": 2061284783, "lat": 52.4696114, "lon": 13.3221003}, {"type": "node", "id": 2061284784, "lat": 52.4696123, "lon": 13.3215847}, {"type": "node", "id": 2061284785, "lat": 52.470116, "lon": 13.3225485}, {"type": "node", "id": 2223032245, "lat": 52.4751243, "lon": 13.3203341}, {"type": "node", "id": 2223150366, "lat": 52.475628, "lon": 13.3351293}, {"type": "node", "id": 2223150376, "lat": 52.4756922, "lon": 13.3351314}, {"type": "node", "id": 2291818720, "lat": 52.4668944, "lon": 13.3307527, "tags": {"addr:city": "Berlin", "addr:country": "DE", "addr:housenumber": "47", "addr:postcode": "12161", "addr:street": "Rheinstra\u00dfe", "addr:suburb": "Friedenau", "amenity": "restaurant", "check_date:opening_hours": "2025-04-24", "cuisine": "pizza;italian", "delivery": "yes", "diet:vegetarian": "yes", "name": "La Luna", "opening_hours": "Mo-Th 11:00-22:15; Fr-Su 11:00-22:30", "opening_hours:signed": "no", "outdoor_seating": "yes", "phone": "+49 30 8521069", "smoking": "outside", "takeaway": "yes", "toilets:wheelchair": "no", "website": "https://www.lalunaberlin.de/", "wheelchair": "limited", "wheelchair:description": "entrance door is pretty narrow, not much space inside, no bathrooms"}}, {"type": "node", "id": 2376849873, "lat": 52.4676682, "lon": 13.3345153}, {"type": "node", "id": 2376849875, "lat": 52.4677103, "lon": 13.3344091}, {"type": "node", "id": 2376849876, "lat": 52.4677059, "lon": 13.3344779, "tags": {"leisure": "pitch", "sport": "table_tennis", "wheelchair": "yes"}}, {"type": "node", "id": 2376849878, "lat": 52.4677241, "lon": 13.3343937}, {"type": "node", "id": 2376849879, "lat": 52.4677267, "lon": 13.3346248}, {"type": "node", "id": 2376849880, "lat": 52.4677397, "lon": 13.3346389, "tags": {"barrier": "gate"}}, {"type": "node", "id": 2376849881, "lat": 52.4677402, "lon": 13.334591}, {"type": "node", "id": 2376849882, "lat": 52.4677414, "lon": 13.3345235}, {"type": "node", "id": 2376849883, "lat": 52.4677437, "lon": 13.334388}, {"type": "node", "id": 2376849884, "lat": 52.4677461, "lon": 13.334401}, {"type": "node", "id": 2376849886, "lat": 52.467754, "lon": 13.3343828}, {"type": "node", "id": 2376849887, "lat": 52.4677564, "lon": 13.3343958}, {"type": "node", "id": 2376849889, "lat": 52.4677585, "lon": 13.3346592}, {"type": "node", "id": 2376849890, "lat": 52.4677623, "lon": 13.3342951}, {"type": "node", "id": 2376849891, "lat": 52.4677653, "lon": 13.3344324, "tags": {"playground": "swing"}}, {"type": "node", "id": 2376849892, "lat": 52.4677722, "lon": 13.3344439}, {"type": "node", "id": 2376849893, "lat": 52.4677739, "lon": 13.3345575}, {"type": "node", "id": 2376849895, "lat": 52.4677781, "lon": 13.3344065, "tags": {"playground": "swing"}}, {"type": "node", "id": 2376849897, "lat": 52.4677827, "lon": 13.3343444, "tags": {"playground": "slide"}}, {"type": "node", "id": 2376849898, "lat": 52.4677869, "lon": 13.3344455, "tags": {"playground": "swing"}}, {"type": "node", "id": 2376849899, "lat": 52.4677892, "lon": 13.3344807}, {"type": "node", "id": 2376849900, "lat": 52.4677995, "lon": 13.3344915}, {"type": "node", "id": 2376849901, "lat": 52.4678013, "lon": 13.3344493}, {"type": "node", "id": 2376849904, "lat": 52.4678109, "lon": 13.3344593}, {"type": "node", "id": 2376849907, "lat": 52.4678422, "lon": 13.3343785}, {"type": "node", "id": 2376849908, "lat": 52.4679218, "lon": 13.3342417}, {"type": "node", "id": 2376852820, "lat": 52.4676377, "lon": 13.3344273}, {"type": "node", "id": 2376852822, "lat": 52.4676558, "lon": 13.3343816}, {"type": "node", "id": 2376852824, "lat": 52.4676837, "lon": 13.3344762}, {"type": "node", "id": 2376852825, "lat": 52.4677018, "lon": 13.3344305}, {"type": "node", "id": 2376863048, "lat": 52.4670085, "lon": 13.3325766}, {"type": "node", "id": 2376863056, "lat": 52.4672012, "lon": 13.3340661}, {"type": "node", "id": 2376863059, "lat": 52.4676553, "lon": 13.3345478}, {"type": "node", "id": 2385181240, "lat": 52.4742122, "lon": 13.3225369, "tags": {"addr:city": "Berlin", "addr:country": "DE", "addr:housenumber": "12", "addr:postcode": "12161", "addr:street": "S\u00fcdwestkorso", "addr:suburb": "Friedenau", "amenity": "restaurant", "check_date:opening_hours": "2025-05-30", "contact:phone": "+49 30 91579577", "cuisine": "italian", "diet:vegetarian": "yes", "indoor_seating": "yes", "internet_access": "wlan", "internet_access:fee": "no", "name": "Corso Toscana", "opening_hours": "Mo-Fr 16:00-22:30; Sa,Su 12:00-22:30", "outdoor_seating": "yes", "phone": "+49 30 91579577", "toilets:wheelchair": "no", "website": "https://corso-toscana.de/", "wheelchair": "yes"}}, {"type": "node", "id": 2406415359, "lat": 52.4678946, "lon": 13.3227822}, {"type": "node", "id": 2406418937, "lat": 52.4667899, "lon": 13.3218978}, {"type": "node", "id": 2406418938, "lat": 52.4668505, "lon": 13.3217171}, {"type": "node", "id": 2406418943, "lat": 52.4669139, "lon": 13.3215291}, {"type": "node", "id": 2406418946, "lat": 52.4669513, "lon": 13.32153}, {"type": "node", "id": 2406418948, "lat": 52.4669908, "lon": 13.3219034}, {"type": "node", "id": 2406418949, "lat": 52.4669942, "lon": 13.321766}, {"type": "node", "id": 2406418950, "lat": 52.4669994, "lon": 13.3215322}, {"type": "node", "id": 2409135234, "lat": 52.4758569, "lon": 13.3402464, "tags": {"addr:city": "Berlin", "addr:country": "DE", "addr:housenumber": "69", "addr:postcode": "12159", "addr:street": "Hauptstra\u00dfe", "addr:suburb": "Friedenau", "amenity": "cafe", "check_date:opening_hours": "2024-06-04", "cuisine": "coffee_shop", "indoor_seating": "yes", "name": "Caf\u00e9 Traum", "opening_hours:signed": "no", "outdoor_seating": "yes", "wheelchair": "yes"}}, {"type": "node", "id": 2409187394, "lat": 52.4721187, "lon": 13.3350396, "tags": {"addr:city": "Berlin", "addr:country": "DE", "addr:housenumber": "14-15", "addr:postcode": "12159", "addr:street": "Lauterstra\u00dfe", "addr:suburb": "Friedenau", "amenity": "cafe", "bakehouse": "yes", "check_date": "2025-01-27", "check_date:opening_hours": "2024-06-04", "contact:instagram": "lulaammarkt_berlin", "cuisine": "pizza", "diet:vegan": "yes", "diet:vegetarian": "yes", "email": "ammarkt@lula-berlin.de", "indoor_seating": "yes", "name": "LuLa am Markt", "opening_hours": "Mo-Su 08:30-20:00", "outdoor_seating": "yes", "payment:credit_cards": "yes", "payment:debit_cards": "yes", "phone": "+49 30 85103323", "smoking": "outside", "toilets:wheelchair": "yes", "website": "https://www.lula-berlin.de/lula-bakery", "website:menu": "https://www.lula-berlin.de/bakery-menu", "wheelchair": "limited"}}, {"type": "node", "id": 2581028506, "lat": 52.4678747, "lon": 13.3213306}, {"type": "node", "id": 2581028510, "lat": 52.4684321, "lon": 13.320738, "tags": {"access": "private", "leisure": "playground"}}, {"type": "node", "id": 2581046817, "lat": 52.4695548, "lon": 13.3266659}, {"type": "node", "id": 2581046821, "lat": 52.4698086, "lon": 13.3267366, "tags": {"access": "private", "leisure": "playground"}}, {"type": "node", "id": 2674904746, "lat": 52.4693166, "lon": 13.3264435}, {"type": "node", "id": 2674904749, "lat": 52.4694235, "lon": 13.3261555}, {"type": "node", "id": 2674904751, "lat": 52.4696392, "lon": 13.326387}, {"type": "node", "id": 2776721738, "lat": 52.4664074, "lon": 13.3276587, "tags": {"addr:city": "Berlin", "addr:country": "DE", "addr:housenumber": "1", "addr:postcode": "12161", "addr:street": "Lef\u00e8vrestra\u00dfe", "addr:suburb": "Friedenau", "amenity": "restaurant", "check_date": "2022-10-15", "cuisine": "chinese", "name": "Look & Feel Restaurant 008GRILL", "opening_hours": "Tu-Fr 11:30-22:30; Sa 12:00-23:00; Su 12:00-22:30", "payment:girocard": "yes", "phone": "+493029009988", "toilets:wheelchair": "no", "website": "https://008grill.de", "wheelchair": "limited"}}, {"type": "node", "id": 2850406401, "lat": 52.4711485, "lon": 13.3203023, "tags": {"addr:city": "Berlin", "addr:country": "DE", "addr:housenumber": "13", "addr:postcode": "14197", "addr:street": "Laubacher Stra\u00dfe", "addr:suburb": "Friedenau", "brand": "Edeka", "brand:wikidata": "Q701755", "brand:wikipedia": "de:Edeka", "check_date": "2024-11-08", "name": "EDEKA", "opening_hours": "Mo-Fr 08:00-19:00; Sa 08:00-14:00; PH off", "payment:cash": "yes", "payment:girocard": "yes", "payment:mastercard": "yes", "payment:visa": "yes", "shop": "supermarket", "wheelchair": "limited"}}, {"type": "node", "id": 3029466235, "lat": 52.4705701, "lon": 13.3306273, "tags": {"addr:city": "Berlin", "addr:country": "DE", "addr:housenumber": "25", "addr:postcode": "12161", "addr:street": "Schmiljanstra\u00dfe", "addr:suburb": "Friedenau", "amenity": "restaurant", "cuisine": "korean", "name": "Seoul-Kwan", "opening_hours": "Tu-Fr 18:00-22:30; Sa,Su 12:00-22:30", "phone": "+49 30 8526262", "website": "https://www.seoul-kwan.de/"}}, {"type": "node", "id": 3041107993, "lat": 52.4655114, "lon": 13.3256361, "tags": {"barrier": "gate", "entrance": "yes"}}, {"type": "node", "id": 3041108790, "lat": 52.4661946, "lon": 13.3258692}, {"type": "node", "id": 3041108791, "lat": 52.4661937, "lon": 13.3261244, "tags": {"barrier": "gate", "entrance": "yes"}}, {"type": "node", "id": 3057072497, "lat": 52.4649137, "lon": 13.3251137}, {"type": "node", "id": 3057072512, "lat": 52.4653405, "lon": 13.3255241}, {"type": "node", "id": 3057072514, "lat": 52.465374, "lon": 13.3254313}, {"type": "node", "id": 3057072518, "lat": 52.465715, "lon": 13.3244775}, {"type": "node", "id": 3157916989, "lat": 52.4692985, "lon": 13.3332592, "tags": {"addr:city": "Berlin", "addr:country": "DE", "addr:housenumber": "55", "addr:postcode": "12159", "addr:street": "Rheinstra\u00dfe", "addr:suburb": "Friedenau", "amenity": "bar", "brewery": "K\u00f6nig Pilsner", "description": "Raucherbar", "indoor_seating": "yes", "internet_access": "wlan", "name": "Bar 55\u00b0", "opening_hours": "Tu-Th 17:00-24:00, Fr,Sa 17:00-02:00", "operator": "Mario Borchert", "outdoor_seating": "sidewalk", "smoking": "yes", "wheelchair": "no"}}, {"type": "node", "id": 3157916990, "lat": 52.4705605, "lon": 13.3346022, "tags": {"addr:city": "Berlin", "addr:country": "DE", "addr:housenumber": "62", "addr:postcode": "12159", "addr:street": "Rheinstra\u00dfe", "addr:suburb": "Friedenau", "amenity": "restaurant", "cuisine": "italian", "diet:vegetarian": "yes", "indoor_seating": "yes", "name": "Ristorante Barolo", "opening_hours": "Tu-Fr 12:00-23:00; Sa,Su 12:00-23:30", "outdoor_seating": "yes", "phone": "+49 30 8528856", "toilets:wheelchair": "no", "wheelchair": "limited"}}, {"type": "node", "id": 3157916992, "lat": 52.4711198, "lon": 13.3352295, "tags": {"addr:city": "Berlin", "addr:housenumber": "65", "addr:postcode": "12159", "addr:street": "Rheinstra\u00dfe", "amenity": "cafe", "contact:facebook": "https://www.facebook.com/fraubehrenstortenfr", "cuisine": "cake", "diet:vegetarian": "yes", "indoor_seating": "yes", "name": "Frau Behrens Torten", "opening_hours": "Mo-Fr 11:00-18:00; Sa,Su 11:00-19:00", "outdoor_seating": "sidewalk", "payment:cash": "yes", "payment:credit_cards": "no", "payment:debit_cards": "no", "phone": "+49 30 47012467", "website": "https://gugelhupf-berlin.de", "wheelchair": "limited"}}, {"type": "node", "id": 3157917186, "lat": 52.4713396, "lon": 13.3347336, "tags": {"addr:city": "Berlin", "addr:country": "DE", "addr:housenumber": "2", "addr:postcode": "12159", "addr:street": "Rheinstra\u00dfe", "addr:suburb": "Friedenau", "amenity": "pharmacy", "check_date:opening_hours": "2023-09-17", "dispensing": "yes", "drive_through": "no", "healthcare": "pharmacy", "name": "Lauter Apotheke", "opening_hours": "Mo-Fr 09:00-18:30; Sa 09:00-14:00", "operator": "Anna Fredrich e.K.", "phone": "+49 30 8524403", "website": "https://www.lauter-apotheke.de", "wheelchair": "yes"}}, {"type": "node", "id": 3157917302, "lat": 52.4681435, "lon": 13.3366884}, {"type": "node", "id": 3157917350, "lat": 52.4682276, "lon": 13.3364727}, {"type": "node", "id": 3157917400, "lat": 52.4683529, "lon": 13.3361503}, {"type": "node", "id": 3157917444, "lat": 52.4684808, "lon": 13.3370419}, {"type": "node", "id": 3157917445, "lat": 52.4684809, "lon": 13.3370485}, {"type": "node", "id": 3157917446, "lat": 52.4684835, "lon": 13.3369075}, {"type": "node", "id": 3157917447, "lat": 52.4684846, "lon": 13.3368625}, {"type": "node", "id": 3157917453, "lat": 52.4684893, "lon": 13.3366229}, {"type": "node", "id": 3157917455, "lat": 52.4684905, "lon": 13.3365644}, {"type": "node", "id": 3157917468, "lat": 52.4685145, "lon": 13.3365656}, {"type": "node", "id": 3157917596, "lat": 52.4688277, "lon": 13.3354818}, {"type": "node", "id": 3157917787, "lat": 52.4691669, "lon": 13.3336191}, {"type": "node", "id": 3157917812, "lat": 52.4691796, "lon": 13.3336142}, {"type": "node", "id": 3157917816, "lat": 52.4691878, "lon": 13.3336717}, {"type": "node", "id": 3157919869, "lat": 52.4713058, "lon": 13.332657}, {"type": "node", "id": 3157919870, "lat": 52.4713115, "lon": 13.3327359}, {"type": "node", "id": 3157919874, "lat": 52.4713124, "lon": 13.3325706}, {"type": "node", "id": 3157919877, "lat": 52.4713314, "lon": 13.3328185}, {"type": "node", "id": 3157919878, "lat": 52.4713383, "lon": 13.3324775}, {"type": "node", "id": 3157919879, "lat": 52.4713636, "lon": 13.3328901}, {"type": "node", "id": 3157919880, "lat": 52.4713734, "lon": 13.3324098}, {"type": "node", "id": 3157919883, "lat": 52.4714039, "lon": 13.3329427}, {"type": "node", "id": 3157919890, "lat": 52.4714186, "lon": 13.3323608}, {"type": "node", "id": 3157919899, "lat": 52.471451, "lon": 13.332977}, {"type": "node", "id": 3157919900, "lat": 52.4714699, "lon": 13.3323312}, {"type": "node", "id": 3157919901, "lat": 52.4715113, "lon": 13.3329912, "tags": {"barrier": "kerb", "kerb": "raised", "tactile_paving": "no"}}, {"type": "node", "id": 3157919902, "lat": 52.4715103, "lon": 13.3323254, "tags": {"barrier": "kerb", "kerb": "lowered", "tactile_paving": "no"}}, {"type": "node", "id": 3157919903, "lat": 52.4715537, "lon": 13.3329818}, {"type": "node", "id": 3157919904, "lat": 52.4715768, "lon": 13.332344}, {"type": "node", "id": 3157919905, "lat": 52.4716016, "lon": 13.3329534}, {"type": "node", "id": 3157919906, "lat": 52.4716252, "lon": 13.3323863}, {"type": "node", "id": 3157919907, "lat": 52.471644, "lon": 13.332906}, {"type": "node", "id": 3157919908, "lat": 52.4716653, "lon": 13.3324462}, {"type": "node", "id": 3157919909, "lat": 52.4716777, "lon": 13.332842}, {"type": "node", "id": 3157919910, "lat": 52.4716931, "lon": 13.3325177}, {"type": "node", "id": 3157919911, "lat": 52.471701, "lon": 13.3327661}, {"type": "node", "id": 3157919912, "lat": 52.4717087, "lon": 13.3325978}, {"type": "node", "id": 3157919913, "lat": 52.4717114, "lon": 13.3326857}, {"type": "node", "id": 3168051136, "lat": 52.4690984, "lon": 13.3319417, "tags": {"addr:city": "Berlin", "addr:country": "DE", "addr:housenumber": "15", "addr:postcode": "12161", "addr:street": "Schmiljanstra\u00dfe", "addr:suburb": "Friedenau", "amenity": "restaurant", "check_date:opening_hours": "2025-05-13", "cuisine": "vietnamese", "indoor_seating": "yes", "name": "Huong Giang", "opening_hours": "Mo-Su 11:00-22:00", "outdoor_seating": "yes", "phone": "+49 30 850 71 792", "wheelchair": "limited"}}, {"type": "node", "id": 3178164315, "lat": 52.4716126, "lon": 13.3361405, "tags": {"addr:city": "Berlin", "addr:country": "DE", "addr:housenumber": "18", "addr:postcode": "12159", "addr:street": "Hedwigstra\u00dfe", "addr:suburb": "Friedenau", "amenity": "cafe", "check_date:opening_hours": "2025-06-16", "contact:facebook": "https://www.facebook.com/pages/Da-Bangg/302173503201125", "cuisine": "korean", "diet:vegetarian": "yes", "indoor_seating": "yes", "name": "DaBangg Teehaus", "opening_hours": "Mo,We-Fr 12:00-15:00,18:00-22:00; Sa,Su 16:00-22:00; Tu off", "outdoor_seating": "yes", "phone": "+49 30 95629407", "website": "http://dabangg.de/", "wheelchair": "limited"}}, {"type": "node", "id": 3178165275, "lat": 52.4722481, "lon": 13.3364059, "tags": {"addr:city": "Berlin", "addr:country": "DE", "addr:housenumber": "80B", "addr:postcode": "12159", "addr:street": "Hauptstra\u00dfe", "addr:suburb": "Friedenau", "amenity": "bar", "brewery": "Warsteiner;K\u00f6nig Ludwig", "contact:facebook": "https://www.facebook.com/OffenBarBerlin", "indoor_seating": "yes", "name": "Offen Bar", "opening_hours": "Su-Th 17:00-03:00, Fr,Sa 17:00-04:00", "outdoor_seating": "yes", "phone": "+49 174 8786531", "toilets:wheelchair": "no", "website": "https://www.offenbar-berlin.de/", "wheelchair": "limited"}}, {"type": "node", "id": 3354050331, "lat": 52.475295, "lon": 13.3245272, "tags": {"addr:city": "Berlin", "addr:country": "DE", "addr:housenumber": "69a", "addr:postcode": "12161", "addr:street": "S\u00fcdwestkorso", "addr:suburb": "Friedenau", "amenity": "restaurant", "check_date": "2024-03-23", "contact:facebook": "https://www.facebook.com/YakYetiberlin/", "cuisine": "indian", "diet:vegan": "yes", "diet:vegetarian": "yes", "indoor_seating": "yes", "name": "Yak & Yeti", "opening_hours": "Sa,Su,PH 12:00-23:00; Mo,We-Fr 14:00-23:00", "outdoor_seating": "yes", "phone": "+49 30 8523067", "smoking": "outside", "website": "http://www.restaurant-yakundyeti.de", "website:menu": "http://restaurant-yakundyeti.de/speisekarte/", "wheelchair": "limited"}}, {"type": "node", "id": 3354050334, "lat": 52.4721004, "lon": 13.3275938, "tags": {"addr:city": "Berlin", "addr:country": "DE", "addr:housenumber": "6", "addr:postcode": "12161", "addr:street": "Friedrich-Wilhelm-Platz", "addr:suburb": "Friedenau", "amenity": "pharmacy", "check_date:opening_hours": "2023-02-21", "dispensing": "yes", "healthcare": "pharmacy", "name": "Friedrich-Wilhelm Apotheke", "opening_hours": "Mo-Fr 08:15-18:30; Sa 09:00-13:00", "wheelchair": "limited"}}, {"type": "node", "id": 3354052457, "lat": 52.4713561, "lon": 13.3283301}, {"type": "node", "id": 3354052458, "lat": 52.4713581, "lon": 13.3284554}, {"type": "node", "id": 3354052463, "lat": 52.471419, "lon": 13.3281489}, {"type": "node", "id": 3354052465, "lat": 52.4714234, "lon": 13.3286495}, {"type": "node", "id": 3354052469, "lat": 52.4715403, "lon": 13.3285906}, {"type": "node", "id": 3354052485, "lat": 52.4715684, "lon": 13.3279492}, {"type": "node", "id": 3354052668, "lat": 52.4716785, "lon": 13.3281017}, {"type": "node", "id": 3354053115, "lat": 52.4720314, "lon": 13.3281082}, {"type": "node", "id": 3354053698, "lat": 52.4767619, "lon": 13.3263263, "tags": {"addr:city": "Berlin", "addr:country": "DE", "addr:housenumber": "1", "addr:postcode": "12161", "addr:street": "Fehlerstra\u00dfe", "addr:suburb": "Friedenau", "amenity": "cafe", "check_date": "2025-01-13", "check_date:opening_hours": "2025-01-13", "contact:mobile": "+49 176 20741697", "contact:website": "http://www.lehmbrucks.de/", "diet:vegetarian": "yes", "indoor_seating": "yes", "internet_access": "yes", "internet_access:fee": "no", "name": "Lehmbrucks", "opening_hours": "Mo-Fr 07:00-18:00; Sa,Su 09:00-19:00", "operator": "Lasko Huchthausen und Markow Katovcic GbR", "outdoor_seating": "yes", "toilets:wheelchair": "no", "wheelchair": "limited"}}, {"type": "node", "id": 3354054045, "lat": 52.4729418, "lon": 13.3280138}, {"type": "node", "id": 3354054055, "lat": 52.4730247, "lon": 13.3282745}, {"type": "node", "id": 3354054063, "lat": 52.4730812, "lon": 13.3281661}, {"type": "node", "id": 3354054064, "lat": 52.4730605, "lon": 13.3282453}, {"type": "node", "id": 3354054066, "lat": 52.4730557, "lon": 13.3280233}, {"type": "node", "id": 3354054980, "lat": 52.4743817, "lon": 13.3266272}, {"type": "node", "id": 3354055201, "lat": 52.4744479, "lon": 13.3267377}, {"type": "node", "id": 3354055596, "lat": 52.4746231, "lon": 13.3270304}, {"type": "node", "id": 3354055689, "lat": 52.474863, "lon": 13.3270705}, {"type": "node", "id": 3448403168, "lat": 52.4784628, "lon": 13.3428919}, {"type": "node", "id": 3448403175, "lat": 52.4784641, "lon": 13.3422355}, {"type": "node", "id": 3448403602, "lat": 52.4784825, "lon": 13.3429253}, {"type": "node", "id": 3448403604, "lat": 52.4784827, "lon": 13.3422358}, {"type": "node", "id": 3448403627, "lat": 52.4785035, "lon": 13.3424985}, {"type": "node", "id": 3448403629, "lat": 52.4785044, "lon": 13.3428592}, {"type": "node", "id": 3448403645, "lat": 52.478514, "lon": 13.3427486}, {"type": "node", "id": 3448403676, "lat": 52.4785447, "lon": 13.340278}, {"type": "node", "id": 3448404271, "lat": 52.4788006, "lon": 13.3428878}, {"type": "node", "id": 3570843073, "lat": 52.4700471, "lon": 13.3209725, "tags": {"addr:city": "Berlin", "addr:country": "DE", "addr:housenumber": "8", "addr:postcode": "12161", "addr:street": "Schwalbacher Stra\u00dfe", "addr:suburb": "Friedenau", "amenity": "kindergarten", "check_date": "2024-05-16", "name": "Kinderladen Kraut und R\u00fcben", "operator": "EKT - Kraut und R\u00fcben e.V.", "website": "http://www.kilakrautundr\u00fcben.de"}}, {"type": "node", "id": 3570843074, "lat": 52.4700378, "lon": 13.3221987, "tags": {"addr:city": "Berlin", "addr:country": "DE", "addr:housenumber": "10", "addr:postcode": "12161", "addr:street": "Schwalbacher Stra\u00dfe", "addr:suburb": "Friedenau", "amenity": "kindergarten", "check_date": "2024-03-02", "name": "EKT Rappelschl\u00f6\u00dfchen", "operator": "Rappelschl\u00f6\u00dfchen e.V."}}, {"type": "node", "id": 3570843075, "lat": 52.4680338, "lon": 13.3248294, "tags": {"addr:city": "Berlin", "addr:country": "DE", "addr:housenumber": "7", "addr:postcode": "12161", "addr:street": "Odenwaldstra\u00dfe", "addr:suburb": "Friedenau", "amenity": "restaurant", "check_date:opening_hours": "2024-08-09", "contact:phone": "+49 30 47050333", "contact:website": "https://www.taverna-nostalgia.de", "cuisine": "greek", "name": "Taverna Nostalgia", "opening_hours": "Tu-Su,PH 16:00-23:00; Mo off", "outdoor_seating": "yes", "wheelchair": "no"}}, {"type": "node", "id": 3570850443, "lat": 52.4690443, "lon": 13.3283782}, {"type": "node", "id": 3570850447, "lat": 52.469045, "lon": 13.3283064}, {"type": "node", "id": 3570851005, "lat": 52.4692193, "lon": 13.3235163}, {"type": "node", "id": 3570851011, "lat": 52.4692213, "lon": 13.3231098}, {"type": "node", "id": 3570851015, "lat": 52.4692233, "lon": 13.3226807}, {"type": "node", "id": 3570851017, "lat": 52.4692239, "lon": 13.3225683}, {"type": "node", "id": 3570851018, "lat": 52.4692245, "lon": 13.3224258}, {"type": "node", "id": 3570851353, "lat": 52.4694786, "lon": 13.3243984}, {"type": "node", "id": 3570851364, "lat": 52.4694842, "lon": 13.330683}, {"type": "node", "id": 3570851369, "lat": 52.4694901, "lon": 13.3243807}, {"type": "node", "id": 3570851438, "lat": 52.469547, "lon": 13.3266245}, {"type": "node", "id": 3570851462, "lat": 52.4695784, "lon": 13.3264948}, {"type": "node", "id": 3570851503, "lat": 52.4696106, "lon": 13.3241884}, {"type": "node", "id": 3570851629, "lat": 52.4697276, "lon": 13.324192}, {"type": "node", "id": 3570851662, "lat": 52.4697624, "lon": 13.3221021}, {"type": "node", "id": 3570851688, "lat": 52.4697831, "lon": 13.3272827}, {"type": "node", "id": 3570851689, "lat": 52.4697845, "lon": 13.3269522}, {"type": "node", "id": 3570851726, "lat": 52.4698164, "lon": 13.3221027}, {"type": "node", "id": 3570851740, "lat": 52.4698391, "lon": 13.3272816}, {"type": "node", "id": 3570851741, "lat": 52.4698402, "lon": 13.3272946}, {"type": "node", "id": 3570851753, "lat": 52.4698648, "lon": 13.3269531}, {"type": "node", "id": 3570851755, "lat": 52.469865, "lon": 13.3269177}, {"type": "node", "id": 3570851779, "lat": 52.4698855, "lon": 13.3272824}, {"type": "node", "id": 3570851780, "lat": 52.4698855, "lon": 13.327295}, {"type": "node", "id": 3570851815, "lat": 52.4699163, "lon": 13.3269182}, {"type": "node", "id": 3570851816, "lat": 52.4699163, "lon": 13.3269566}, {"type": "node", "id": 3570852044, "lat": 52.4700297, "lon": 13.3270673}, {"type": "node", "id": 3570852045, "lat": 52.47003, "lon": 13.3269574}, {"type": "node", "id": 3570852063, "lat": 52.4700504, "lon": 13.3272832}, {"type": "node", "id": 3570852065, "lat": 52.4700508, "lon": 13.3271543}, {"type": "node", "id": 3570852082, "lat": 52.4700661, "lon": 13.3221063}, {"type": "node", "id": 3570852090, "lat": 52.4700737, "lon": 13.3271547}, {"type": "node", "id": 3570852092, "lat": 52.470074, "lon": 13.3270677}, {"type": "node", "id": 3570852447, "lat": 52.4702758, "lon": 13.3259921}, {"type": "node", "id": 3570852592, "lat": 52.4703833, "lon": 13.3258209}, {"type": "node", "id": 3570852593, "lat": 52.4703836, "lon": 13.3261692}, {"type": "node", "id": 3570852676, "lat": 52.4704284, "lon": 13.3257483}, {"type": "node", "id": 3570852706, "lat": 52.4704604, "lon": 13.3260463}, {"type": "node", "id": 3570852892, "lat": 52.4705926, "lon": 13.3258358}, {"type": "node", "id": 3570853445, "lat": 52.4708672, "lon": 13.3283468}, {"type": "node", "id": 3570853448, "lat": 52.4708663, "lon": 13.3283911}, {"type": "node", "id": 3570853460, "lat": 52.4708699, "lon": 13.3283497}, {"type": "node", "id": 3570853461, "lat": 52.4708739, "lon": 13.3283567}, {"type": "node", "id": 3571089438, "lat": 52.4688308, "lon": 13.3291537, "tags": {"addr:city": "Berlin", "addr:country": "DE", "addr:housenumber": "55-56", "addr:postcode": "12161", "addr:street": "Handjerystra\u00dfe", "addr:suburb": "Friedenau", "amenity": "restaurant", "cuisine": "italian", "diet:vegan": "yes", "indoor_seating": "yes", "name": "Grado Babo", "opening_hours": "Mo-Fr 12:00-22:00; Sa 17:00-22:00", "outdoor_seating": "yes", "phone": "+49 176 63341686", "website": "https://grado-babo.eatbu.com", "wheelchair": "limited"}}, {"type": "node", "id": 3571089956, "lat": 52.465974, "lon": 13.3257906}, {"type": "node", "id": 3571090834, "lat": 52.4678849, "lon": 13.3342019}, {"type": "node", "id": 3573519567, "lat": 52.4660215, "lon": 13.3242491, "tags": {"addr:city": "Berlin", "addr:country": "DE", "addr:housenumber": "9", "addr:postcode": "12163", "addr:street": "Bornstra\u00dfe", "addr:suburb": "Friedenau", "amenity": "bar", "name": "Zum Lindenblatt", "opening_hours": "Mo-Th 15:00-23:00; Fr,Sa 15:00-24:00", "wheelchair": "no"}}, {"type": "node", "id": 3588747520, "lat": 52.4700835, "lon": 13.3341154, "tags": {"addr:city": "Berlin", "addr:country": "DE", "addr:housenumber": "60", "addr:postcode": "12159", "addr:street": "Rheinstra\u00dfe", "addr:suburb": "Friedenau", "brand": "Denns BioMarkt", "brand:wikidata": "Q48883773", "brand:wikipedia": "de:Denn\u2019s Biomarkt", "check_date:opening_hours": "2024-10-21", "level": "0", "name": "Denns BioMarkt", "opening_hours": "Mo-Sa 08:00-20:00", "operator": "Dennree GmbH", "operator:wikidata": "Q1189641", "organic": "only", "payment:credit_cards": "yes", "payment:debit_cards": "yes", "phone": "+49 30 81006164", "shop": "supermarket", "website": "https://www.biomarkt.de/berlin-rheinstr-60/marktseite", "wheelchair": "yes"}}, {"type": "node", "id": 3643212993, "lat": 52.4727395, "lon": 13.3370918, "tags": {"addr:city": "Berlin", "addr:country": "DE", "addr:housenumber": "82", "addr:postcode": "12159", "addr:street": "Hauptstra\u00dfe", "addr:suburb": "Friedenau", "amenity": "restaurant", "cuisine": "thai", "diet:vegan": "yes", "diet:vegetarian": "yes", "indoor_seating": "yes", "name": "Sweet Cocos", "opening_hours": "Mo-Fr 12:00-22:00; Sa,Su,PH 13:00-22:00", "outdoor_seating": "terrace", "phone": "+49 30 85075675", "website": "http://www.sweetcocos-restaurant.de/", "wheelchair": "yes"}}, {"type": "node", "id": 3644153793, "lat": 52.4682443, "lon": 13.3217331, "tags": {"addr:city": "Berlin", "addr:country": "DE", "addr:housenumber": "4", "addr:postcode": "12161", "addr:street": "Rheingaustra\u00dfe", "addr:suburb": "Friedenau", "amenity": "cafe", "name": "Frau Maus", "toilets:wheelchair": "no", "website": "https://www.frau-maus.de/", "wheelchair": "limited"}}, {"type": "node", "id": 3644201397, "lat": 52.4666208, "lon": 13.3298081, "tags": {"addr:city": "Berlin", "addr:country": "DE", "addr:housenumber": "32", "addr:postcode": "12161", "addr:street": "Rheinstra\u00dfe", "addr:suburb": "Friedenau", "amenity": "restaurant", "diet:vegetarian": "yes", "indoor_seating": "yes", "name": "Edo Sushi", "opening_hours": "Mo-Sa 12:00-21:00; Su 14:00-21:00", "outdoor_seating": "yes", "toilets:wheelchair": "no", "wheelchair": "yes"}}, {"type": "node", "id": 3644228395, "lat": 52.4660933, "lon": 13.3292622, "tags": {"addr:city": "Berlin", "addr:country": "DE", "addr:housenumber": "36", "addr:postcode": "12161", "addr:street": "Rheinstra\u00dfe", "addr:suburb": "Friedenau", "amenity": "bar", "name": "Aliyah", "opening_hours": "Su-Th 12:00-03:00, Fr,Sa 12:00-04:30", "outdoor_seating": "yes", "phone": "+49 30 85070477", "smoking": "outside", "wheelchair": "limited"}}, {"type": "node", "id": 3644262293, "lat": 52.4667251, "lon": 13.3299161, "tags": {"addr:city": "Berlin", "addr:country": "DE", "addr:housenumber": "32-33", "addr:postcode": "12161", "addr:street": "Rheinstra\u00dfe", "addr:suburb": "Friedenau", "amenity": "restaurant", "cuisine": "pizza", "indoor_seating": "yes", "name": "LINOPizza", "opening_hours": "Mo-Su 12:00-23:00", "outdoor_seating": "yes", "takeaway": "yes", "wheelchair": "yes"}}, {"type": "node", "id": 3644274093, "lat": 52.4681433, "lon": 13.3313969, "tags": {"addr:city": "Berlin", "addr:country": "DE", "addr:housenumber": "24", "addr:postcode": "12161", "addr:street": "Rheinstra\u00dfe", "addr:suburb": "Friedenau", "check_date:opening_hours": "2023-04-06", "name": "Asia Kauf", "opening_hours": "Mo-Fr 09:00-18:30; Sa 09:00-16:00", "shop": "supermarket", "wheelchair": "yes"}}, {"type": "node", "id": 3644562993, "lat": 52.4706455, "lon": 13.3202423, "tags": {"addr:city": "Berlin", "addr:country": "DE", "addr:housenumber": "11", "addr:postcode": "14197", "addr:street": "Laubacher Stra\u00dfe", "addr:suburb": "Friedenau", "amenity": "restaurant", "check_date": "2023-04-08", "contact:website": "https://nikkosushi.de/", "cuisine": "sushi", "delivery": "yes", "indoor_seating": "yes", "name": "Nikko Sushi", "opening_hours": "We-Fr,Su,Mo 12:00-21:30; Sa 15:00-21:30; Tu off", "outdoor_seating": "yes", "phone": "+49 30 67965686", "wheelchair": "yes"}}, {"type": "node", "id": 3731125127, "lat": 52.4751776, "lon": 13.3215564}, {"type": "node", "id": 3731125140, "lat": 52.4755095, "lon": 13.321527}, {"type": "node", "id": 3779377275, "lat": 52.4754474, "lon": 13.3396785, "tags": {"addr:city": "Berlin", "addr:country": "DE", "addr:housenumber": "70", "addr:postcode": "12159", "addr:street": "Hauptstra\u00dfe", "addr:suburb": "Friedenau", "amenity": "restaurant", "capacity": "200", "contact:facebook": "https://www.facebook.com/people/Trattoria-del-Corso/100041431607585/", "contact:instagram": "https://www.instagram.com/trattoriadelcorsoberlin/", "cuisine": "italian;pizza", "diet:vegetarian": "yes", "indoor_seating": "yes", "level": "0", "name": "Trattoria del Corso", "opening_hours": "Tu-Sa 12:00-01:00; Su 12:00-24:00", "outdoor_seating": "yes", "phone": "+49 30 85401459", "smoking": "outside", "survey:date": "2025-04-09", "toilets:wheelchair": "no", "website": "https://www.trattoriadelcorso.de/", "wheelchair": "limited"}}, {"type": "node", "id": 3819004957, "lat": 52.4736542, "lon": 13.3217586, "tags": {"addr:city": "Berlin", "addr:country": "DE", "addr:housenumber": "11", "addr:postcode": "12161", "addr:street": "Taunusstra\u00dfe", "amenity": "restaurant", "brewery": "Weihenstephan", "brewery:pils": "K\u00f6nig;G\u00f6sser", "check_date:opening_hours": "2025-05-30", "contact:email": "info@restaurant-miteinander.de", "contact:facebook": "https://www.facebook.com/restaurant", "contact:phone": "+49 30 40502099", "contact:website": "https://www.restaurant-miteinander.de", "cuisine": "austrian", "diet:vegetarian": "yes", "indoor_seating": "yes", "name": "Miteinander", "opening_hours": "We-Fr 17:00-23:00; Sa,Su 12:00-22:00", "opening_hours:kitchen": "We-Fr 17:00-22:00; Sa,Su 12:00-23:00", "outdoor_seating": "yes", "payment:cash": "yes", "payment:girocard": "yes", "wheelchair": "no"}}, {"type": "node", "id": 3993174260, "lat": 52.475688, "lon": 13.3350481}, {"type": "node", "id": 3993174265, "lat": 52.4756897, "lon": 13.3309685}, {"type": "node", "id": 3993174269, "lat": 52.4757033, "lon": 13.3332218}, {"type": "node", "id": 3993174271, "lat": 52.4757187, "lon": 13.330201}, {"type": "node", "id": 3993174277, "lat": 52.4757409, "lon": 13.3309752}, {"type": "node", "id": 3993174285, "lat": 52.4757697, "lon": 13.3347658}, {"type": "node", "id": 3993174304, "lat": 52.4758775, "lon": 13.3331827}, {"type": "node", "id": 3993174323, "lat": 52.4759492, "lon": 13.3306399}, {"type": "node", "id": 3993174358, "lat": 52.4756876, "lon": 13.3351576}, {"type": "node", "id": 3993174359, "lat": 52.4756909, "lon": 13.335145}, {"type": "node", "id": 3993174362, "lat": 52.4756946, "lon": 13.334457}, {"type": "node", "id": 3993174363, "lat": 52.4756999, "lon": 13.3350628}, {"type": "node", "id": 3993174364, "lat": 52.4757016, "lon": 13.3334129}, {"type": "node", "id": 3993174365, "lat": 52.4757019, "lon": 13.3334569}, {"type": "node", "id": 3993174385, "lat": 52.475837, "lon": 13.333225}, {"type": "node", "id": 3993174393, "lat": 52.4758747, "lon": 13.3334629}, {"type": "node", "id": 3993174403, "lat": 52.4759153, "lon": 13.3331835}, {"type": "node", "id": 3993200273, "lat": 52.4755947, "lon": 13.3345586}, {"type": "node", "id": 3993200277, "lat": 52.4756028, "lon": 13.3351311}, {"type": "node", "id": 3993200279, "lat": 52.4756045, "lon": 13.3351068}, {"type": "node", "id": 3993200285, "lat": 52.4756308, "lon": 13.3350492}, {"type": "node", "id": 3993200287, "lat": 52.4756326, "lon": 13.3351031}, {"type": "node", "id": 3993200288, "lat": 52.4756319, "lon": 13.3351558}, {"type": "node", "id": 3993200290, "lat": 52.4756359, "lon": 13.3334084}, {"type": "node", "id": 3993200291, "lat": 52.4756446, "lon": 13.3350842}, {"type": "node", "id": 3993200292, "lat": 52.4756435, "lon": 13.3351755}, {"type": "node", "id": 3993200295, "lat": 52.4756524, "lon": 13.3350792}, {"type": "node", "id": 3993200296, "lat": 52.4756545, "lon": 13.3334389}, {"type": "node", "id": 3993200297, "lat": 52.4756549, "lon": 13.3333165}, {"type": "node", "id": 3993200299, "lat": 52.4756693, "lon": 13.3332616}, {"type": "node", "id": 3993200302, "lat": 52.4756678, "lon": 13.3351816}, {"type": "node", "id": 3993200618, "lat": 52.4756049, "lon": 13.3351554}, {"type": "node", "id": 3993200622, "lat": 52.4756198, "lon": 13.3332966}, {"type": "node", "id": 3993200623, "lat": 52.4756292, "lon": 13.3351157}, {"type": "node", "id": 3993204136, "lat": 52.4712058, "lon": 13.3354599}, {"type": "node", "id": 3993204344, "lat": 52.471544, "lon": 13.3360226}, {"type": "node", "id": 3993205980, "lat": 52.4715116, "lon": 13.3372169}, {"type": "node", "id": 3993205987, "lat": 52.4715363, "lon": 13.336012}, {"type": "node", "id": 3993207879, "lat": 52.4725532, "lon": 13.3375104}, {"type": "node", "id": 3993211639, "lat": 52.475485, "lon": 13.3305565}, {"type": "node", "id": 3993211642, "lat": 52.475494, "lon": 13.3306421}, {"type": "node", "id": 3993211997, "lat": 52.4756222, "lon": 13.3332747}, {"type": "node", "id": 3993211998, "lat": 52.4756226, "lon": 13.3333652}, {"type": "node", "id": 3993212000, "lat": 52.4756289, "lon": 13.335143}, {"type": "node", "id": 3993212001, "lat": 52.4756352, "lon": 13.333228}, {"type": "node", "id": 3993212003, "lat": 52.4756606, "lon": 13.3352239}, {"type": "node", "id": 3993212004, "lat": 52.4756616, "lon": 13.3332776}, {"type": "node", "id": 3993212005, "lat": 52.4756607, "lon": 13.3350777}, {"type": "node", "id": 3993212012, "lat": 52.475669, "lon": 13.3350797}, {"type": "node", "id": 3993212016, "lat": 52.4756819, "lon": 13.3334539}, {"type": "node", "id": 3993212662, "lat": 52.475632, "lon": 13.3352119}, {"type": "node", "id": 3993212663, "lat": 52.4756512, "lon": 13.335181}, {"type": "node", "id": 3993213159, "lat": 52.4754833, "lon": 13.3306101}, {"type": "node", "id": 3993213172, "lat": 52.4755611, "lon": 13.3347828}, {"type": "node", "id": 3993213196, "lat": 52.475619, "lon": 13.3350644}, {"type": "node", "id": 3993213201, "lat": 52.4756378, "lon": 13.3350924}, {"type": "node", "id": 3993213202, "lat": 52.4756369, "lon": 13.3351669}, {"type": "node", "id": 3993213204, "lat": 52.4756445, "lon": 13.3350395}, {"type": "node", "id": 3993213208, "lat": 52.4756458, "lon": 13.335221}, {"type": "node", "id": 3993213209, "lat": 52.4756563, "lon": 13.3333367}, {"type": "node", "id": 3993213210, "lat": 52.4756567, "lon": 13.3332963}, {"type": "node", "id": 3993213213, "lat": 52.4756593, "lon": 13.3350361}, {"type": "node", "id": 3993213214, "lat": 52.4756609, "lon": 13.3333557}, {"type": "node", "id": 3993213215, "lat": 52.4756594, "lon": 13.3351831}, {"type": "node", "id": 3993213220, "lat": 52.4756683, "lon": 13.333372}, {"type": "node", "id": 3993213228, "lat": 52.4756767, "lon": 13.3350853}, {"type": "node", "id": 3993213229, "lat": 52.4756792, "lon": 13.3332495}, {"type": "node", "id": 3993214674, "lat": 52.4756101, "lon": 13.335084}, {"type": "node", "id": 3993214675, "lat": 52.4756108, "lon": 13.3351779}, {"type": "node", "id": 3993214678, "lat": 52.47562, "lon": 13.3351972}, {"type": "node", "id": 3993214679, "lat": 52.4756201, "lon": 13.3333381}, {"type": "node", "id": 3993214681, "lat": 52.4756218, "lon": 13.3344856}, {"type": "node", "id": 3993214690, "lat": 52.4756549, "lon": 13.3331986}, {"type": "node", "id": 3993214701, "lat": 52.4756741, "lon": 13.335039}, {"type": "node", "id": 3993214703, "lat": 52.4756754, "lon": 13.3352204}, {"type": "node", "id": 3993214704, "lat": 52.4756781, "lon": 13.3333847}, {"type": "node", "id": 3993214705, "lat": 52.4756756, "lon": 13.3351766}, {"type": "node", "id": 3993214709, "lat": 52.4756832, "lon": 13.3350938}, {"type": "node", "id": 3993214710, "lat": 52.4756823, "lon": 13.3351684}, {"type": "node", "id": 3993214711, "lat": 52.4756851, "lon": 13.3331756}, {"type": "node", "id": 3993216258, "lat": 52.4757018, "lon": 13.3333957}, {"type": "node", "id": 3993216259, "lat": 52.4757026, "lon": 13.333178}, {"type": "node", "id": 3993216260, "lat": 52.4757031, "lon": 13.3332396}, {"type": "node", "id": 3993216261, "lat": 52.4756951, "lon": 13.3309756}, {"type": "node", "id": 3993216262, "lat": 52.4757091, "lon": 13.335082}, {"type": "node", "id": 3993216263, "lat": 52.4757098, "lon": 13.3351759}, {"type": "node", "id": 3993216266, "lat": 52.475715, "lon": 13.3351046}, {"type": "node", "id": 3993216268, "lat": 52.4757172, "lon": 13.3351288}, {"type": "node", "id": 3993216281, "lat": 52.4757416, "lon": 13.330208}, {"type": "node", "id": 3993216323, "lat": 52.4759532, "lon": 13.3305635}, {"type": "node", "id": 3993216332, "lat": 52.4759914, "lon": 13.3334669}, {"type": "node", "id": 3993216462, "lat": 52.4756913, "lon": 13.3351178}, {"type": "node", "id": 3993216465, "lat": 52.4757124, "lon": 13.3344772}, {"type": "node", "id": 3993216468, "lat": 52.4757345, "lon": 13.3302031}, {"type": "node", "id": 3993216488, "lat": 52.4759274, "lon": 13.3331704}, {"type": "node", "id": 3993216493, "lat": 52.4759739, "lon": 13.3334663}, {"type": "node", "id": 3993216557, "lat": 52.4756892, "lon": 13.3352107}, {"type": "node", "id": 3993216558, "lat": 52.4756882, "lon": 13.3351049}, {"type": "node", "id": 3993216562, "lat": 52.4757009, "lon": 13.3351956}, {"type": "node", "id": 3993216657, "lat": 52.4756895, "lon": 13.3333927}, {"type": "node", "id": 3993216659, "lat": 52.4756908, "lon": 13.3332419}, {"type": "node", "id": 3993216660, "lat": 52.4757154, "lon": 13.3351532}, {"type": "node", "id": 3993216670, "lat": 52.4759558, "lon": 13.330618}, {"type": "node", "id": 3993216864, "lat": 52.4758354, "lon": 13.333416}, {"type": "node", "id": 3993216877, "lat": 52.4760137, "lon": 13.3334677}, {"type": "node", "id": 3993217275, "lat": 52.4765512, "lon": 13.3416916}, {"type": "node", "id": 3993219170, "lat": 52.476839, "lon": 13.3331975}, {"type": "node", "id": 3993220449, "lat": 52.4767784, "lon": 13.3352477}, {"type": "node", "id": 3993220794, "lat": 52.4768862, "lon": 13.3421301}, {"type": "node", "id": 3993221394, "lat": 52.4770645, "lon": 13.3423633}, {"type": "node", "id": 3993222776, "lat": 52.4770808, "lon": 13.3423848}, {"type": "node", "id": 3993282378, "lat": 52.4689514, "lon": 13.3332173}, {"type": "node", "id": 3993282394, "lat": 52.4690665, "lon": 13.3331789}, {"type": "node", "id": 3993297359, "lat": 52.4652002, "lon": 13.3286811}, {"type": "node", "id": 3993297362, "lat": 52.465819, "lon": 13.3293648}, {"type": "node", "id": 3993297364, "lat": 52.4660176, "lon": 13.3294832}, {"type": "node", "id": 3993297366, "lat": 52.4660538, "lon": 13.3296218}, {"type": "node", "id": 3993297367, "lat": 52.466076, "lon": 13.3296462}, {"type": "node", "id": 3993297368, "lat": 52.4661288, "lon": 13.3295993}, {"type": "node", "id": 3993297370, "lat": 52.4662163, "lon": 13.3296903}, {"type": "node", "id": 3993297372, "lat": 52.4662821, "lon": 13.3297596}, {"type": "node", "id": 3993297373, "lat": 52.466304, "lon": 13.3297829}, {"type": "node", "id": 3993297375, "lat": 52.4665129, "lon": 13.3301022}, {"type": "node", "id": 3993297376, "lat": 52.4666121, "lon": 13.3302043}, {"type": "node", "id": 3993297377, "lat": 52.4666335, "lon": 13.3301252}, {"type": "node", "id": 3993297379, "lat": 52.4666645, "lon": 13.3301585}, {"type": "node", "id": 3993297382, "lat": 52.4669412, "lon": 13.3304469}, {"type": "node", "id": 3993297385, "lat": 52.4672915, "lon": 13.3308117}, {"type": "node", "id": 3993330658, "lat": 52.4651779, "lon": 13.3287393}, {"type": "node", "id": 3993330662, "lat": 52.4656552, "lon": 13.3292011}, {"type": "node", "id": 3993330664, "lat": 52.4659879, "lon": 13.3295533}, {"type": "node", "id": 3993330666, "lat": 52.4661423, "lon": 13.3297151}, {"type": "node", "id": 3993330667, "lat": 52.4662299, "lon": 13.3298065}, {"type": "node", "id": 3993330668, "lat": 52.4662529, "lon": 13.3298305}, {"type": "node", "id": 3993330670, "lat": 52.4663396, "lon": 13.3299201}, {"type": "node", "id": 3993330671, "lat": 52.4664048, "lon": 13.329989}, {"type": "node", "id": 3993330672, "lat": 52.4664273, "lon": 13.3300124}, {"type": "node", "id": 3993330674, "lat": 52.4666978, "lon": 13.3302947}, {"type": "node", "id": 3993330677, "lat": 52.4668181, "lon": 13.3303188}, {"type": "node", "id": 3993330678, "lat": 52.4668866, "lon": 13.3304935}, {"type": "node", "id": 3993330679, "lat": 52.4669053, "lon": 13.3304101}, {"type": "node", "id": 3993330683, "lat": 52.4670286, "lon": 13.3305372}, {"type": "node", "id": 3993330684, "lat": 52.467041, "lon": 13.3306517}, {"type": "node", "id": 3993330686, "lat": 52.4671165, "lon": 13.3306277}, {"type": "node", "id": 3993330687, "lat": 52.4671844, "lon": 13.3306987}, {"type": "node", "id": 3993330959, "lat": 52.4656767, "lon": 13.3291413}, {"type": "node", "id": 3993330961, "lat": 52.4659531, "lon": 13.329416}, {"type": "node", "id": 3993330962, "lat": 52.4659663, "lon": 13.3295293}, {"type": "node", "id": 3993330964, "lat": 52.4661636, "lon": 13.3297374}, {"type": "node", "id": 3993330966, "lat": 52.4661947, "lon": 13.3296676}, {"type": "node", "id": 3993330967, "lat": 52.4663701, "lon": 13.3298512}, {"type": "node", "id": 3993330968, "lat": 52.4664792, "lon": 13.3299652}, {"type": "node", "id": 3993330972, "lat": 52.4666761, "lon": 13.3302716}, {"type": "node", "id": 3993330973, "lat": 52.466752, "lon": 13.3302502}, {"type": "node", "id": 3993330974, "lat": 52.4667843, "lon": 13.3303845}, {"type": "node", "id": 3993330975, "lat": 52.4669533, "lon": 13.3305601}, {"type": "node", "id": 3993330976, "lat": 52.4670976, "lon": 13.3306086}, {"type": "node", "id": 3993330978, "lat": 52.4672627, "lon": 13.3308828}, {"type": "node", "id": 3993331060, "lat": 52.4658409, "lon": 13.3293053}, {"type": "node", "id": 3993331061, "lat": 52.4661058, "lon": 13.3295746}, {"type": "node", "id": 3993331064, "lat": 52.4663936, "lon": 13.3298759}, {"type": "node", "id": 3993331066, "lat": 52.4664565, "lon": 13.3299412}, {"type": "node", "id": 3993331067, "lat": 52.4667314, "lon": 13.3302289}, {"type": "node", "id": 3993331069, "lat": 52.4669749, "lon": 13.330583}, {"type": "node", "id": 3993331159, "lat": 52.4665451, "lon": 13.3300348}, {"type": "node", "id": 3993331160, "lat": 52.4665667, "lon": 13.330057}, {"type": "node", "id": 3993331161, "lat": 52.4665791, "lon": 13.3301694}, {"type": "node", "id": 3993331358, "lat": 52.4659022, "lon": 13.3294579}, {"type": "node", "id": 3993331359, "lat": 52.4660393, "lon": 13.3295063}, {"type": "node", "id": 3993331363, "lat": 52.466762, "lon": 13.3303613}, {"type": "node", "id": 3993331364, "lat": 52.4668392, "lon": 13.3303416}, {"type": "node", "id": 3993331365, "lat": 52.4668516, "lon": 13.3304549}, {"type": "node", "id": 3993331366, "lat": 52.4670078, "lon": 13.3305149}, {"type": "node", "id": 3993331368, "lat": 52.4670607, "lon": 13.3306731}, {"type": "node", "id": 3993331369, "lat": 52.4671318, "lon": 13.3307469}, {"type": "node", "id": 3993332057, "lat": 52.4663157, "lon": 13.3298943}, {"type": "node", "id": 3993332058, "lat": 52.4664927, "lon": 13.3300802}, {"type": "node", "id": 4149887215, "lat": 52.4726684, "lon": 13.3275854, "tags": {"addr:city": "Berlin", "addr:country": "DE", "addr:housenumber": "4", "addr:postcode": "12161", "addr:street": "Friedrich-Wilhelm-Platz", "addr:suburb": "Friedenau", "amenity": "restaurant", "cuisine": "vietnamese", "delivery": "no", "diet:vegan": "yes", "indoor_seating": "yes", "internet_access": "wlan", "name": "Cobui", "opening_hours": "Mo-Fr 11:30-22:30; Sa,Su,PH 12:00-22:30", "outdoor_seating": "yes", "phone": "+49 30 85071478", "takeaway": "yes", "toilets": "yes", "website": "https://cobuiskitchen.de/", "wheelchair": "limited"}}, {"type": "node", "id": 4376092954, "lat": 52.4769046, "lon": 13.3205594, "tags": {"addr:city": "Berlin", "addr:country": "DE", "addr:housenumber": "28", "addr:postcode": "14197", "addr:street": "Laubacher Stra\u00dfe", "addr:suburb": "Wilmersdorf", "amenity": "restaurant", "cuisine": "italian", "diet:vegetarian": "yes", "name": "CantaMaggio", "outdoor_seating": "yes", "smoking": "outside", "wheelchair": "limited"}}, {"type": "node", "id": 4540396039, "lat": 52.4700684, "lon": 13.3283385}, {"type": "node", "id": 4540396046, "lat": 52.4713031, "lon": 13.3281285}, {"type": "node", "id": 4540396048, "lat": 52.4713306, "lon": 13.3281545}, {"type": "node", "id": 4540396049, "lat": 52.4714133, "lon": 13.3279638}, {"type": "node", "id": 4540396050, "lat": 52.4714221, "lon": 13.3279754}, {"type": "node", "id": 4567833438, "lat": 52.4677833, "lon": 13.3343667, "tags": {"playground": "climbingframe"}}, {"type": "node", "id": 4580766589, "lat": 52.4715898, "lon": 13.3369743, "tags": {"addr:city": "Berlin", "addr:housenumber": "5", "addr:postcode": "12159", "addr:street": "Fregestra\u00dfe", "amenity": "restaurant", "cuisine": "vietnamese", "diet:vegan": "yes", "diet:vegetarian": "yes", "indoor_seating": "yes", "name": "HANOI BISTRO", "opening_hours": "Mo-Su 12:00-21:00", "outdoor_seating": "yes", "phone": "+49 30 24629486", "wheelchair": "limited"}}, {"type": "node", "id": 4599704934, "lat": 52.4787751, "lon": 13.3430841}, {"type": "node", "id": 4599757223, "lat": 52.4787149, "lon": 13.3431602}, {"type": "node", "id": 4611974789, "lat": 52.4752377, "lon": 13.332993, "tags": {"addr:city": "Berlin", "addr:housenumber": "10", "addr:postcode": "12159", "addr:street": "Perelsplatz", "amenity": "restaurant", "cuisine": "greek", "diet:vegetarian": "yes", "indoor_seating": "yes", "name": "Restaurant Medusa", "name:de": "Restaurant Medusa", "opening_hours": "Tu-Su 16:00-22:00", "outdoor_seating": "yes", "phone": "+49 30 8516589", "website": "https://www.restaurant-medusa.de/", "wheelchair": "no"}}, {"type": "node", "id": 4813846795, "lat": 52.4669431, "lon": 13.3280048, "tags": {"addr:city": "Berlin", "addr:country": "DE", "addr:housenumber": "93", "addr:postcode": "12161", "addr:street": "Bundesallee", "addr:suburb": "Friedenau", "amenity": "cafe", "check_date": "2022-10-15", "cuisine": "coffee_shop", "name": "Zeitraum Kaffee", "opening_hours": "Mo-Sa 08:00-18:00; Su,PH 09:00-18:00", "outdoor_seating": "yes", "smoking": "outside", "wheelchair": "no"}}, {"type": "node", "id": 4948133024, "lat": 52.4663754, "lon": 13.330254, "tags": {"addr:city": "Berlin", "addr:country": "DE", "addr:housenumber": "45/46", "addr:postcode": "12161", "addr:street": "Rheinstra\u00dfe", "addr:suburb": "Friedenau", "amenity": "restaurant", "cuisine": "international", "name": "Schmidt Z & KO.", "opening_hours": "Tu,We 12:00-18:00; Th-Sa 12:00-22:00", "toilets:wheelchair": "yes", "website": "https://www.schmidt-z-ko.de/", "wheelchair": "yes"}}, {"type": "node", "id": 4955248528, "lat": 52.4720819, "lon": 13.3295791}, {"type": "node", "id": 4955248529, "lat": 52.4720816, "lon": 13.3295127}, {"type": "node", "id": 4955248530, "lat": 52.4720791, "lon": 13.329454}, {"type": "node", "id": 4955248531, "lat": 52.4720738, "lon": 13.3294355}, {"type": "node", "id": 4955248532, "lat": 52.4720417, "lon": 13.3294181}, {"type": "node", "id": 4955248533, "lat": 52.4720085, "lon": 13.3294188}, {"type": "node", "id": 4955248534, "lat": 52.4719781, "lon": 13.3294265}, {"type": "node", "id": 4955248535, "lat": 52.4719453, "lon": 13.3294837}, {"type": "node", "id": 4955248538, "lat": 52.4721319, "lon": 13.3295799}, {"type": "node", "id": 4955248539, "lat": 52.4719134, "lon": 13.3297532}, {"type": "node", "id": 4955248540, "lat": 52.4721306, "lon": 13.3297504}, {"type": "node", "id": 4955248541, "lat": 52.4714459, "lon": 13.3302438}, {"type": "node", "id": 4955248542, "lat": 52.4710968, "lon": 13.330255}, {"type": "node", "id": 4955248543, "lat": 52.4710783, "lon": 13.3302411}, {"type": "node", "id": 4955248544, "lat": 52.471089, "lon": 13.3302019}, {"type": "node", "id": 4955248545, "lat": 52.4711859, "lon": 13.329879}, {"type": "node", "id": 4955248546, "lat": 52.4714441, "lon": 13.3298931}, {"type": "node", "id": 4955248547, "lat": 52.4700755, "lon": 13.3365273}, {"type": "node", "id": 4955248548, "lat": 52.4701092, "lon": 13.3365297}, {"type": "node", "id": 4955248549, "lat": 52.4701061, "lon": 13.3366458}, {"type": "node", "id": 4955248550, "lat": 52.4701696, "lon": 13.3366504}, {"type": "node", "id": 4955248551, "lat": 52.4701769, "lon": 13.3363768}, {"type": "node", "id": 4955248552, "lat": 52.4700797, "lon": 13.3363698}, {"type": "node", "id": 5000336777, "lat": 52.4730618, "lon": 13.321831, "tags": {"addr:city": "Berlin", "addr:country": "DE", "addr:housenumber": "63", "addr:postcode": "12161", "addr:street": "S\u00fcdwestkorso", "addr:suburb": "Friedenau", "amenity": "cafe", "check_date": "2025-06-01", "check_date:opening_hours": "2025-03-31", "contact:facebook": "https://www.facebook.com/wildcaffe", "contact:phone": "+49 30 48822648", "diet:vegetarian": "yes", "indoor_seating": "yes", "internet_access": "wlan", "internet_access:fee": "no", "name": "wild caff\u00e8", "opening_hours": "Mo-Fr 09:00-20:00; Sa,Su 11:00-20:00", "outdoor_seating": "yes", "payment:cash": "yes", "payment:credit_cards": "yes", "payment:debit_cards": "yes", "phone": "+49 30 48822648", "smoking": "outside", "toilets:wheelchair": "no", "wheelchair": "no"}}, {"type": "node", "id": 5097137164, "lat": 52.4665589, "lon": 13.3297426, "tags": {"addr:city": "Berlin", "addr:housenumber": "32", "addr:postcode": "12161", "addr:street": "Rheinstra\u00dfe", "addr:suburb": "Friedenau", "amenity": "restaurant", "contact:phone": "+49 30 8529422", "contact:website": "https://www.tapas-espana.de/", "cuisine": "spanish", "indoor_seating": "yes", "name": "Tapas Espa\u00f1a", "opening_hours": "Tu-Fr 17:00-23:00; Sa,Su 16:00-23:00; Mo off", "outdoor_seating": "yes"}}, {"type": "node", "id": 5200301685, "lat": 52.4713535, "lon": 13.3283901}, {"type": "node", "id": 5200301849, "lat": 52.47138, "lon": 13.3282319}, {"type": "node", "id": 5200359897, "lat": 52.471679, "lon": 13.3280205}, {"type": "node", "id": 5200360618, "lat": 52.471621, "lon": 13.3279333}, {"type": "node", "id": 5200360977, "lat": 52.4716241, "lon": 13.328021}, {"type": "node", "id": 5232400945, "lat": 52.4770774, "lon": 13.3284422}, {"type": "node", "id": 5232400946, "lat": 52.4771217, "lon": 13.3285589}, {"type": "node", "id": 5232400947, "lat": 52.4768099, "lon": 13.3285608}, {"type": "node", "id": 5232400948, "lat": 52.4766887, "lon": 13.3285815}, {"type": "node", "id": 5232400949, "lat": 52.4766928, "lon": 13.3283951}, {"type": "node", "id": 5232400950, "lat": 52.4768094, "lon": 13.3284313}, {"type": "node", "id": 5241035583, "lat": 52.4713941, "lon": 13.3235588, "tags": {"addr:city": "Berlin", "addr:housenumber": "59", "addr:postcode": "12161", "addr:street": "Stubenrauchstra\u00dfe", "amenity": "restaurant", "check_date:opening_hours": "2024-07-09", "check_date:website": "2023-02-19", "cuisine": "peruvian;spanish", "disused:website": "https://comoencasabien.jimdofree.com/", "name": "Como en casa", "note:website": "Die Website scheint ein tempor\u00e4res Problem zu haben, aber prinzipiell noch die richtige zu sein.", "opening_hours": "Mo off; Tu-Su 10:00-23:00+", "outdoor_seating": "yes", "phone": "+49 30 67800599", "smoking": "outside", "takeaway": "yes", "wheelchair": "no"}}, {"type": "node", "id": 5334168209, "lat": 52.4788765, "lon": 13.3422464, "tags": {"barrier": "kerb", "kerb": "lowered", "tactile_paving": "no"}}, {"type": "node", "id": 5334168210, "lat": 52.4788557, "lon": 13.3421719}, {"type": "node", "id": 5334168211, "lat": 52.4788716, "lon": 13.3422069}, {"type": "node", "id": 5334168212, "lat": 52.4788173, "lon": 13.3421411}, {"type": "node", "id": 5334168213, "lat": 52.4786631, "lon": 13.342126}, {"type": "node", "id": 5334168214, "lat": 52.4785881, "lon": 13.3421485}, {"type": "node", "id": 5334168215, "lat": 52.4786037, "lon": 13.3421317}, {"type": "node", "id": 5334168216, "lat": 52.4785734, "lon": 13.3421763}, {"type": "node", "id": 5334168217, "lat": 52.4785886, "lon": 13.3423812}, {"type": "node", "id": 5334168218, "lat": 52.4786018, "lon": 13.3424405}, {"type": "node", "id": 5424941664, "lat": 52.4713541, "lon": 13.3336298, "tags": {"addr:city": "Berlin", "addr:country": "DE", "addr:housenumber": "33", "addr:postcode": "12159", "addr:street": "Schmargendorfer Stra\u00dfe", "addr:suburb": "Friedenau", "amenity": "restaurant", "check_date:opening_hours": "2023-09-17", "contact:facebook": "https://www.facebook.com/people/Cafe-Sonnenschein/100066913008994", "diet:vegan": "no", "diet:vegetarian": "yes", "indoor_seating": "yes", "name": "Sonnenschein Caf\u00e9 & Restaurant", "opening_hours": "Tu-Sa 10:00-21:00; Mo off", "outdoor_seating": "yes", "phone": "+49 176 72463531", "website": "https://www.cafe-sonnenschein-berlin.de/", "wheelchair": "yes"}}, {"type": "node", "id": 5424941683, "lat": 52.4713541, "lon": 13.3341293, "tags": {"addr:city": "Berlin", "addr:country": "DE", "addr:housenumber": "35", "addr:postcode": "12159", "addr:street": "Schmargendorfer Stra\u00dfe", "addr:suburb": "Friedenau", "amenity": "restaurant", "cuisine": "sushi", "level": "0", "name": "Bonni", "website": "https://bonnisushi.de/"}}, {"type": "node", "id": 5554773465, "lat": 52.4713876, "lon": 13.3359731, "tags": {"addr:city": "Berlin", "addr:country": "DE", "addr:housenumber": "1", "addr:postcode": "12159", "addr:street": "Hedwigstra\u00dfe", "addr:suburb": "Friedenau", "amenity": "restaurant", "contact:facebook": "https://www.facebook.com/lamezclaberlin/", "contact:instagram": "https://www.instagram.com/lamezclaberlin", "cuisine": "fusion;fish", "diet:vegetarian": "yes", "email": "reservierung@la-mezcla.de", "indoor_seating": "yes", "name": "La Mezcla", "opening_hours": "Tu-Th 18:00-23:00; Fr,Sa 18:00-24:00", "opening_hours:kitchen": "Tu-Sa 17:30-22:00", "outdoor_seating": "yes", "phone": "+49 30 857 50 700", "ref:vatin": "DE1861073396", "website": "https://www.la-mezcla.de/", "wheelchair": "no"}}, {"type": "node", "id": 5643671624, "lat": 52.4764939, "lon": 13.3288085, "tags": {"addr:city": "Berlin", "addr:country": "DE", "addr:housenumber": "140", "addr:postcode": "12161", "addr:street": "Bundesallee", "addr:suburb": "Friedenau", "amenity": "kindergarten", "check_date": "2025-01-08", "name": "Kinderladen Sieglinde", "operator": "Eltern-Initiativ-Kita Sieglinde e. V."}}, {"type": "node", "id": 5749818808, "lat": 52.47532, "lon": 13.3237587, "tags": {"addr:city": "Berlin", "addr:country": "DE", "addr:housenumber": "9", "addr:postcode": "12161", "addr:street": "S\u00fcdwestkorso", "addr:suburb": "Friedenau", "alt_name": "Vienna", "amenity": "cafe", "diet:vegetarian": "only", "indoor_seating": "yes", "name": "Mr. Moose", "opening_hours": "Mo-Su 11:00-20:00", "outdoor_seating": "yes", "wheelchair": "limited"}}, {"type": "node", "id": 5751466743, "lat": 52.4719343, "lon": 13.3291412}, {"type": "node", "id": 5751466744, "lat": 52.4719745, "lon": 13.3291412}, {"type": "node", "id": 5751466745, "lat": 52.4719745, "lon": 13.3291499}, {"type": "node", "id": 5751466746, "lat": 52.4720237, "lon": 13.3291499}, {"type": "node", "id": 5751466747, "lat": 52.4720237, "lon": 13.3291633}, {"type": "node", "id": 5751466748, "lat": 52.4719343, "lon": 13.3291595}, {"type": "node", "id": 5751466749, "lat": 52.4720644, "lon": 13.3291632}, {"type": "node", "id": 5751466750, "lat": 52.4720644, "lon": 13.3291505}, {"type": "node", "id": 5751466755, "lat": 52.4721334, "lon": 13.3293463}, {"type": "node", "id": 5751466845, "lat": 52.4721324, "lon": 13.329512}, {"type": "node", "id": 5759617521, "lat": 52.4756199, "lon": 13.3333168}, {"type": "node", "id": 5759617522, "lat": 52.4758992, "lon": 13.3334637}, {"type": "node", "id": 5761158458, "lat": 52.4767665, "lon": 13.3262159, "tags": {"addr:city": "Berlin", "addr:country": "DE", "addr:housenumber": "1", "addr:postcode": "12161", "addr:street": "Fehlerstra\u00dfe", "addr:suburb": "Friedenau", "amenity": "restaurant", "contact:website": "http://mikasushiberlin.com/", "cuisine": "sushi", "diet:vegetarian": "yes", "indoor_seating": "yes", "name": "Mika Sushi", "opening_hours": "We-Su 16:00-22:00; Mo,Tu off", "outdoor_seating": "yes"}}, {"type": "node", "id": 5938467760, "lat": 52.4713526, "lon": 13.3339382, "tags": {"addr:city": "Berlin", "addr:country": "DE", "addr:housenumber": "34", "addr:postcode": "12159", "addr:street": "Schmargendorfer Stra\u00dfe", "addr:suburb": "Friedenau", "amenity": "kindergarten", "check_date": "2023-09-13", "name": "das kr\u00fcmelzimmer"}}, {"type": "node", "id": 5938875150, "lat": 52.4702863, "lon": 13.3336429, "tags": {"addr:city": "Berlin", "addr:housenumber": "10", "addr:postcode": "12159", "addr:street": "Rheinstra\u00dfe", "amenity": "cafe", "contact:email": "rheinstrasse@sterntal.de", "contact:fax": "+49 30 85109997", "contact:instagram": "sterntalrheinstrasse", "contact:phone": "+49 30 85109998", "indoor_seating": "yes", "name": "Caf\u00e9 Sterntal Galerie", "opening_hours": "Mo-Fr 09:00-19:00; Sa 10:00-18:00", "outdoor_seating": "yes", "phone": "+49 30 85109998", "toilets:wheelchair": "yes", "website": "https://sterntal-rheinstrasse.de/ueber-uns", "wheelchair": "yes"}}, {"type": "node", "id": 6053973547, "lat": 52.4678781, "lon": 13.3209094}, {"type": "node", "id": 6053973548, "lat": 52.4683, "lon": 13.3209188}, {"type": "node", "id": 6053973549, "lat": 52.4682988, "lon": 13.3213386}, {"type": "node", "id": 6055317346, "lat": 52.4696437, "lon": 13.3329743, "tags": {"addr:city": "Berlin", "addr:housenumber": "15", "addr:postcode": "12159", "addr:street": "Rheinstra\u00dfe", "name": "Golden Ilakkya Asia", "opening_hours": "Mo-Sa 10:30-19:30", "shop": "supermarket"}}, {"type": "node", "id": 6221630048, "lat": 52.4756169, "lon": 13.3403311}, {"type": "node", "id": 6221630049, "lat": 52.4756402, "lon": 13.3402802},