{"version": 0.6, "generator": "Overpass API 0.7.62.7 375dc00a", "osm3s": {"timestamp_osm_base": "2025-08-05T13:51:22Z", "copyright": "The data included in this document is from www.openstreetmap.org. The data is made available under ODbL."}, "elements": [{"type": "node", "id": 25661409, "lat": 52.5184248, "lon": 13.3853308}, {"type": "node", "id": 26871661, "lat": 52.5305147, "lon": 13.3874878}, {"type": "node", "id": 26871696, "lat": 52.5308168, "lon": 13.3888775}, {"type": "node", "id": 27410745, "lat": 52.5190209, "lon": 13.4126008}, {"type": "node", "id": 29192119, "lat": 52.5252712, "lon": 13.3952746}, {"type": "node", "id": 29192120, "lat": 52.5253131, "lon": 13.3958786}, {"type": "node", "id": 29194639, "lat": 52.5193239, "lon": 13.4001621}, {"type": "node", "id": 29221577, "lat": 52.5281894, "lon": 13.4091606}, {"type": "node", "id": 30306974, "lat": 52.528135, "lon": 13.3738585}, {"type": "node", "id": 30306985, "lat": 52.5284623, "lon": 13.3735143}, {"type": "node", "id": 30306986, "lat": 52.5287933, "lon": 13.3730403}, {"type": "node", "id": 30306987, "lat": 52.5291865, "lon": 13.3725609}, {"type": "node", "id": 30306988, "lat": 52.529583, "lon": 13.3721623}, {"type": "node", "id": 30306989, "lat": 52.5303255, "lon": 13.3714294}, {"type": "node", "id": 30306990, "lat": 52.5307458, "lon": 13.3710943}, {"type": "node", "id": 30306991, "lat": 52.5315309, "lon": 13.3705359}, {"type": "node", "id": 30307019, "lat": 52.5320613, "lon": 13.3700813}, {"type": "node", "id": 30307041, "lat": 52.5323971, "lon": 13.3697858}, {"type": "node", "id": 30307049, "lat": 52.5359755, "lon": 13.3662434}, {"type": "node", "id": 38898197, "lat": 52.5141361, "lon": 13.4171909}, {"type": "node", "id": 38898198, "lat": 52.5143642, "lon": 13.4159923}, {"type": "node", "id": 38898199, "lat": 52.5144312, "lon": 13.4148819}, {"type": "node", "id": 38898200, "lat": 52.5142822, "lon": 13.413965}, {"type": "node", "id": 54771670, "lat": 52.5132034, "lon": 13.3989023}, {"type": "node", "id": 58489979, "lat": 52.5098189, "lon": 13.4073729, "tags": {"addr:city": "Berlin", "addr:country": "DE", "addr:housenumber": "83", "addr:postcode": "10179", "addr:street": "Alte Jakobstra\u00dfe", "addr:suburb": "Mitte", "brand": "Netto Marken-Discount", "brand:wikidata": "Q879858", "brand:wikipedia": "de:Netto Marken-Discount", "check_date": "2025-05-03", "check_date:opening_hours": "2024-10-10", "internet_access": "no", "name": "Netto Marken-Discount", "opening_hours": "Mo-Sa 07:00-24:00; Su off", "payment:mastercard": "yes", "payment:visa": "yes", "shop": "supermarket", "website": "https://www.netto-online.de/filialen/Berlin-Mitte/Alte-Jakobstr-83/7714/", "wheelchair": "no"}}, {"type": "node", "id": 66917199, "lat": 52.5194029, "lon": 13.3887381, "tags": {"amenity": "cafe", "brand": "Starbucks", "brand:wikidata": "Q37158", "brand:wikipedia": "en:Starbucks", "check_date": "2025-06-30", "check_date:smoking": "2025-06-30", "cuisine": "coffee_shop", "diet:vegetarian": "yes", "indoor_seating": "yes", "name": "Starbucks", "official_name": "Starbucks Coffee", "opening_hours": "Mo-Fr 07:00-21:00; Sa 08:00-21:00; Su 09:00-19:30", "outdoor_seating": "yes", "smoking": "no", "source": "http://wiki.openstreetmap.org/wiki/Key:cuisine", "takeaway": "yes", "toilets:wheelchair": "yes", "wheelchair": "yes"}}, {"type": "node", "id": 66917229, "lat": 52.5167295, "lon": 13.3797732, "tags": {"addr:city": "Berlin", "addr:housenumber": "4A", "addr:postcode": "10117", "addr:street": "Pariser Platz", "amenity": "cafe", "brand": "Starbucks", "brand:wikidata": "Q37158", "brand:wikipedia": "en:Starbucks", "check_date:opening_hours": "2023-03-20", "cuisine": "coffee_shop", "diet:vegan": "yes", "diet:vegetarian": "yes", "indoor_seating": "yes", "internet_access": "wlan", "internet_access:fee": "no", "name": "Starbucks", "official_name": "Starbucks Coffee", "opening_hours": "Mo-Fr 08:00-21:00; Sa,Su 09:00-21:00", "outdoor_seating": "yes", "phone": "+49 30 20617990", "takeaway": "yes", "toilets:wheelchair": "no", "website": "https://www.starbucks.de/store-locator/store/2099/pariser-platz-pariser-platz-4-a-berlin-be-10117-de", "wheelchair": "yes"}}, {"type": "node", "id": 69226035, "lat": 52.5105561, "lon": 13.3958628, "tags": {"addr:city": "Berlin", "addr:country": "DE", "addr:housenumber": "43", "addr:postcode": "10117", "addr:street": "Leipziger Stra\u00dfe", "addr:suburb": "Mitte", "amenity": "pharmacy", "check_date": "2022-08-22", "dispensing": "yes", "healthcare": "pharmacy", "man_made": "surveillance", "name": "Leipziger Apotheke", "opening_hours": "Mo-Fr 08:00-19:00; Sa 08:00-14:00", "payment:mastercard": "yes", "payment:visa": "yes", "surveillance": "outdoor", "wheelchair": "yes"}}, {"type": "node", "id": 84646591, "lat": 52.5308437, "lon": 13.3829698, "tags": {"addr:city": "Berlin", "addr:country": "DE", "addr:housenumber": "22", "addr:postcode": "10115", "addr:street": "Chausseestra\u00dfe", "addr:suburb": "Mitte", "air_conditioning": "no", "amenity": "fast_food", "brand": "Subway", "brand:wikidata": "Q244457", "brand:wikipedia": "en:Subway (restaurant)", "check_date": "2024-09-13", "check_date:currency:XBT": "2025-05-06", "cuisine": "sandwich", "currency:XBT": "no", "diet:vegan": "yes", "diet:vegetarian": "yes", "indoor_seating": "yes", "name": "Subway", "opening_hours": "Mo-Fr 09:00-23:00; Sa,Su 11:00-23:00", "outdoor_seating": "sidewalk", "payment:cash": "no", "payment:credit_cards": "yes", "payment:lightning": "no", "payment:lightning_contactless": "no", "payment:mastercard": "yes", "payment:onchain": "no", "payment:visa": "yes", "smoking": "no", "takeaway": "yes", "wheelchair": "limited"}}, {"type": "node", "id": 86001790, "lat": 52.5158107, "lon": 13.3899247, "tags": {"addr:city": "Berlin", "addr:housenumber": "47", "addr:postcode": "10117", "addr:street": "Behrenstra\u00dfe", "air_conditioning": "no", "amenity": "fast_food", "brand": "Subway", "brand:wikidata": "Q244457", "brand:wikipedia": "en:Subway (restaurant)", "check_date": "2025-03-23", "check_date:opening_hours": "2025-03-23", "cuisine": "sandwich", "drive_through": "no", "internet_access": "no", "name": "Subway", "opening_hours": "Mo-Su,PH 09:00-23:00", "outdoor_seating": "yes", "payment:girocard": "yes", "payment:mastercard": "no", "payment:visa": "no", "smoking": "no", "surveillance": "indoor", "takeaway": "yes", "wheelchair": "yes"}}, {"type": "node", "id": 86001794, "lat": 52.5151119, "lon": 13.3889084, "tags": {"addr:city": "Berlin", "addr:country": "DE", "addr:housenumber": "167;168", "addr:postcode": "10117", "addr:street": "Friedrichstra\u00dfe", "addr:suburb": "Mitte", "amenity": "restaurant", "contact:email": "info@boccadibacco.de", "contact:fax": "+49 30 20672929", "contact:phone": "+49 30 20672828", "contact:website": "http://www.boccadibacco.de/", "cuisine": "italian", "entrance": "main", "image": "https://static.rollingpin.ch/public/uploads/images/employers/1e/1c/124283505/resized/baccofront01-1920x1280.jpg", "name": "Bocca di Bacco", "opening_hours": "Mo-Sa 12:00-24:00", "opening_hours:covid19": "off", "operator": "Alessandro Mannozzi", "outdoor_seating": "yes", "smoking": "no", "toilets:wheelchair": "no", "wheelchair": "no"}}, {"type": "node", "id": 86001798, "lat": 52.5150034, "lon": 13.3903882, "tags": {"addr:city": "Berlin", "addr:country": "DE", "addr:housenumber": "47", "addr:postcode": "10117", "addr:street": "Franz\u00f6sische Stra\u00dfe", "addr:suburb": "Mitte", "amenity": "restaurant", "contact:phone": "+49 30 81886262", "name": "Restaurant Borchardt", "opening_hours": "11:30-24:00", "smoking": "no", "toilets:wheelchair": "no", "website": "https://www.borchardt-restaurant.de/", "wheelchair": "limited", "wheelchair:description": "Dank Rolli wurden wir hinauskomplementiert.", "wikidata": "Q1386375", "wikimedia_commons": "File:Berlin, Mitte, Franz\u00f6sische Strasse, Weinhandlung Borchardt 02.jpg", "wikipedia": "de:F. W. Borchardt"}}, {"type": "node", "id": 86001813, "lat": 52.514689, "lon": 13.3909281, "tags": {"addr:city": "Berlin", "addr:country": "DE", "addr:housenumber": "25", "addr:postcode": "10117", "addr:street": "Franz\u00f6sische Stra\u00dfe", "addr:suburb": "Mitte", "amenity": "restaurant", "name": "Heritage", "opening_hours": "Mo-Su 06:30-23:00", "smoking": "no", "wheelchair": "no"}}, {"type": "node", "id": 86001825, "lat": 52.5132123, "lon": 13.3911782, "tags": {"addr:city": "Berlin", "addr:country": "DE", "addr:housenumber": "56", "addr:postcode": "10117", "addr:street": "Charlottenstra\u00dfe", "addr:suburb": "Mitte", "amenity": "restaurant", "check_date": "2025-06-30", "check_date:smoking": "2025-06-30", "cuisine": "german", "indoor_seating": "yes", "name": "Lutter & Wegner", "opening_hours": "Mo-Su,PH 12:00-24:00", "outdoor_seating": "yes", "phone": "+49 30 20 29 54 0", "smoking": "no", "website": "http://www.l-w-berlin.de", "website:menu": "http://www.l-w-berlin.de/pdf/LutterWegnerSpeisekartedeutschSommer.pdf", "wheelchair": "no"}}, {"type": "node", "id": 86001833, "lat": 52.5124049, "lon": 13.3913074, "tags": {"addr:city": "Berlin", "addr:housenumber": "59", "addr:postcode": "10117", "addr:street": "Charlottenstra\u00dfe", "amenity": "restaurant", "name": "Victor & Victoria", "name:en": "Victor & Victoria", "phone": "+49 30 992115611", "smoking": "no", "toilets:wheelchair": "no", "website": "https://victorvictoriaberlin.com/", "wheelchair": "yes"}}, {"type": "node", "id": 86001835, "lat": 52.512033, "lon": 13.3919416, "tags": {"addr:city": "Berlin", "addr:housenumber": "30", "addr:postcode": "10117", "addr:street": "Mohrenstra\u00dfe", "amenity": "bar", "email": "info@bellboyberlin.com", "min_age": "25", "name": "Bellboy Berlin", "name:ja": "\u30d9\u30eb\u30dc\u30fc\u30a4 \u30d9\u30eb\u30ea\u30f3", "opening_hours": "Tu-Su 18:00+", "phone": "+49 30 20077070", "smoking": "no", "toilets:wheelchair": "yes", "website": "https://bellboybar.com/", "wheelchair": "yes"}}, {"type": "node", "id": 86001837, "lat": 52.5120539, "lon": 13.3922763, "tags": {"amenity": "restaurant", "name": "Fellini", "smoking": "no", "wheelchair": "no"}}, {"type": "node", "id": 86005430, "lat": 52.5129305, "lon": 13.3912298, "tags": {"addr:city": "Berlin", "addr:housenumber": "57", "addr:postcode": "10117", "addr:street": "Charlottenstra\u00dfe", "amenity": "bar", "check_date": "2025-06-30", "check_date:smoking": "2025-06-30", "indoor_seating": "yes", "level": "0", "name": "Newton Bar", "operator": "LaggnerGruppe", "outdoor_seating": "yes", "smoking": "no", "website": "http://www.newton-bar.de", "wheelchair": "no"}}, {"type": "node", "id": 87036259, "lat": 52.5307598, "lon": 13.3831456, "tags": {"addr:city": "Berlin", "addr:country": "DE", "addr:housenumber": "35", "addr:postcode": "10115", "addr:street": "Invalidenstra\u00dfe", "addr:suburb": "Mitte", "air_conditioning": "yes", "amenity": "cafe", "brand": "Espresso House", "brand:wikidata": "Q10489162", "check_date": "2025-03-16", "contact:phone": "+49 30 24628826", "contact:website": "https://de.espressohouse.com/coffee-shops/chausseestrae/", "cuisine": "coffee_shop", "diet:vegan": "yes", "diet:vegetarian": "yes", "indoor_seating": "yes", "internet_access": "no", "level": "0", "name": "Espresso House", "opening_hours": "Mo-Fr 06:30-19:30; Sa,Su 08:00-20:00", "outdoor_seating": "yes", "payment:credit_cards": "yes", "payment:mastercard": "yes", "payment:visa": "yes", "smoking": "outside", "takeaway": "yes", "wheelchair": "limited"}}, {"type": "node", "id": 87036261, "lat": 52.5306975, "lon": 13.3841248, "tags": {"addr:city": "Berlin", "addr:housenumber": "114", "addr:postcode": "10115", "addr:street": "Invalidenstra\u00dfe", "amenity": "pharmacy", "check_date": "2024-10-11", "check_date:opening_hours": "2024-10-11", "contact:phone": "+49 30 282 30 48", "dispensing": "yes", "email": "info@nordlandapotheke-berlin.de", "fax": "+49 30 280 985 18", "healthcare": "pharmacy", "level": "0", "name": "Nordland Apotheke", "opening_hours": "Mo-Fr 08:00-19:00", "operator": "Tina T\u00f6llner e.K.", "website": "https://nordlandapotheke-berlin.de/", "wheelchair": "yes"}}, {"type": "node", "id": 87040343, "lat": 52.5110724, "lon": 13.3900182, "tags": {"addr:city": "Berlin", "addr:country": "DE", "addr:housenumber": "61", "addr:postcode": "10117", "addr:street": "Friedrichstra\u00dfe", "addr:suburb": "Mitte", "amenity": "cafe", "brand": "Starbucks", "brand:wikidata": "Q37158", "brand:wikipedia": "en:Starbucks", "check_date": "2025-06-30", "check_date:smoking": "2025-06-30", "contact:phone": "+49 30 206 086711", "cuisine": "coffee_shop", "diet:vegetarian": "yes", "indoor_seating": "yes", "internet_access": "wlan", "internet_access:fee": "no", "internet_access:ssid": "MEET ME @ STARBUCKS", "name": "Starbucks", "official_name": "Starbucks Coffee", "opening_hours": "Mo-Fr 07:00-20:00; Sa 08:00-20:00; Su 09:00-19:00", "outdoor_seating": "yes", "smoking": "no", "takeaway": "yes", "wheelchair": "yes", "wheelchair:description": "Toilette ist im Keller, und die Theke erreicht man nur \u00fcber eine Stufe!", "wheelchair:source": "https://wheelmap.org"}}, {"type": "node", "id": 87040348, "lat": 52.5113571, "lon": 13.3894708, "tags": {"amenity": "cafe", "brand": "Einstein Kaffee", "brand:wikidata": "Q107987401", "check_date:opening_hours": "2020-11-27", "cuisine": "coffee_shop", "indoor_seating": "yes", "internet_access": "wlan", "internet_access:fee": "no", "name": "Einstein Kaffee", "opening_hours": "Mo-Fr 07:00-20:00; PH,Sa-Su 09:00-19:00", "outdoor_seating": "yes", "smoking": "outside", "takeaway": "yes", "toilets": "yes", "toilets:wheelchair": "no", "wheelchair": "yes", "wheelchair:source": "http://wheelmap.org"}}, {"type": "node", "id": 87040391, "lat": 52.5113441, "lon": 13.3891811, "tags": {"addr:city": "Berlin", "addr:country": "DE", "addr:housenumber": "185-190", "addr:postcode": "10117", "addr:street": "Friedrichstra\u00dfe", "addr:suburb": "Mitte", "amenity": "restaurant", "check_date": "2025-06-30", "check_date:smoking": "2025-06-30", "contact:email": "info@maximiliansrestaurant.de", "contact:fax": "+49 30 20450894", "contact:phone": "+49 30 20450559", "contact:website": "https://www.maximilians-berlin.de/", "cuisine": "bavarian", "indoor_seating": "yes", "level": "0", "lunch:specials": "yes", "name": "Maximilians", "opening_hours": "Mo-Su 11:30-23:30", "outdoor_seating": "yes", "payment:mastercard": "yes", "payment:visa": "yes", "smoking": "no", "toilets:wheelchair": "yes", "wheelchair": "yes"}}, {"type": "node", "id": 87040394, "lat": 52.511292, "lon": 13.3887116, "tags": {"addr:city": "Berlin", "addr:country": "DE", "addr:housenumber": "66", "addr:postcode": "10117", "addr:street": "Kronenstra\u00dfe", "addr:suburb": "Mitte", "amenity": "restaurant", "check_date": "2025-06-30", "check_date:smoking": "2025-06-30", "cuisine": "japanese", "diet:vegetarian": "yes", "indoor_seating": "yes", "internet_access": "wlan", "name": "Izumi Sushi Bar", "opening_hours": "Mo-Fr 11:00-23:00; Sa 12:00-23:00; Su 01:00-23:00", "outdoor_seating": "yes", "phone": "+49 30 20649938", "smoking": "no", "toilets:wheelchair": "no", "website": "https://www.sushi-izumi.de/", "wheelchair": "yes"}}, {"type": "node", "id": 87040402, "lat": 52.5117692, "lon": 13.3868843, "tags": {"addr:city": "Berlin", "addr:housenumber": "4", "addr:postcode": "10117", "addr:street": "Glinkastra\u00dfe", "amenity": "pharmacy", "check_date:opening_hours": "2024-03-18", "dispensing": "yes", "email": "info@friedrichstadtapotheke.de", "fax": "+4930 2045282 1", "healthcare": "pharmacy", "name": "Friedrichstadt Apotheke", "opening_hours": "Mo-Fr 08:00-19:00; Sa 09:00-13:00", "phone": "+49 30 2045282 0", "website": "https://www.friedrichstadtapotheke.de/", "wheelchair": "yes"}}, {"type": "node", "id": 89274641, "lat": 52.52429, "lon": 13.4118534, "tags": {"addr:city": "Berlin", "addr:country": "DE", "addr:housenumber": "29", "addr:postcode": "10178", "addr:street": "Karl-Liebknecht-Stra\u00dfe", "addr:suburb": "Mitte", "amenity": "restaurant", "check_date": "2025-06-30", "check_date:smoking": "2025-06-30", "contact:phone": "+49 30 25817696", "contact:website": "https://beast-berlin.com/", "cuisine": "steak_house", "diet:vegan": "yes", "diet:vegetarian": "yes", "indoor_seating": "yes", "level": "1", "name": "Beast Berlin", "opening_hours": "Tu-Sa 17:00-02:00; Su,Mo off", "outdoor_seating": "no", "smoking": "no", "website:menu": "https://beast-berlin.com/wp-content/uploads/2024/06/DE-Speisen-Getraenke.pdf", "wheelchair": "no"}}, {"type": "node", "id": 89274696, "lat": 52.5235991, "lon": 13.4109696, "tags": {"addr:city": "Berlin", "addr:country": "DE", "addr:housenumber": "23", "addr:postcode": "10178", "addr:street": "Karl-Liebknecht-Stra\u00dfe", "addr:suburb": "Mitte", "amenity": "restaurant", "contact:phone": "+49 30 85077788", "contact:website": "https://www.aapka.de/restaurants/berlin-alexanderplatz/", "cuisine": "indian", "diet:vegan": "yes", "diet:vegetarian": "yes", "indoor_seating": "yes", "name": "Aapka - Restaurant Alexanderplatz", "opening_hours": "11:30+", "outdoor_seating": "yes", "reservation": "yes", "smoking": "no", "start_date": "2025-01-17", "website:menu": "https://www.aapka.de/menu-alexanderplatz/", "website:reservation": "https://www.aapka.de/reservierung/"}}, {"type": "node", "id": 89274697, "lat": 52.521847, "lon": 13.4098188, "tags": {"addr:city": "Berlin", "addr:city:fa": "\u0628\u0631\u0644\u06cc\u0646", "addr:country": "DE", "addr:housenumber": "1", "addr:postcode": "10178", "addr:street": "Panoramastra\u00dfe", "addr:suburb": "Mitte", "amenity": "pharmacy", "contact:phone": "+49 30 24720707", "contact:website": "http://www.panoramaapotheke.de/", "dispensing": "yes", "drive_through": "no", "healthcare": "pharmacy", "name": "Panorama Apotheke", "opening_hours": "Mo-Fr 08:00-20:00; Sa 08:30-18:00", "wheelchair": "no"}}, {"type": "node", "id": 89274703, "lat": 52.5214304, "lon": 13.4092065, "tags": {"addr:city": "Berlin", "addr:country": "DE", "addr:housenumber": "1", "addr:postcode": "10178", "addr:street": "Panoramastra\u00dfe", "addr:suburb": "Mitte", "amenity": "restaurant", "check_date": "2025-06-30", "check_date:smoking": "2025-06-30", "cuisine": "german", "email": "restaurant@der-alte-fritz.de", "indoor_seating": "yes", "internet_access": "wlan", "internet_access:fee": "no", "level": "0", "name": "Der Alte Fritz", "opening_hours": "PH,Mo-Su 12:00-22:00", "outdoor_seating": "yes", "payment:mastercard": "yes", "payment:visa": "yes", "phone": "+49 30 96200600", "smoking": "no", "takeaway": "yes", "website": "https://der-alte-fritz.eatbu.com/"}}, {"type": "node", "id": 89274833, "lat": 52.5203514, "lon": 13.4122196, "tags": {"addr:city": "Berlin", "addr:country": "DE", "addr:housenumber": "1", "addr:postcode": "10178", "addr:street": "Rathausstra\u00dfe", "addr:suburb": "Mitte", "amenity": "restaurant", "indoor_seating": "yes", "internet_access": "yes", "name": "Carambar", "opening_hours": "Mo-Su,PH 12:00-18:00+", "outdoor_seating": "yes", "smoking": "separated", "website": "https://carambar.de", "website:menu": "https://carambar.de/digitale-karte/de/speisen/", "wheelchair": "yes"}}, {"type": "node", "id": 89274854, "lat": 52.5202106, "lon": 13.4118079, "tags": {"amenity": "restaurant", "check_date:opening_hours": "2023-04-12", "indoor_seating": "yes", "name": "Matzbach", "opening_hours:signed": "no", "outdoor_seating": "yes", "smoking": "no"}}, {"type": "node", "id": 89274884, "lat": 52.5200676, "lon": 13.4114731, "tags": {"addr:city": "Berlin", "addr:country": "DE", "addr:housenumber": "5", "addr:postcode": "10178", "addr:street": "Rathausstra\u00dfe", "addr:suburb": "Mitte", "air_conditioning": "yes", "alt_name": "Dunkin' Donuts", "amenity": "fast_food", "brand": "Dunkin'", "brand:wikidata": "Q847743", "brand:wikipedia": "en:Dunkin' Donuts", "contact:website": "https://www.dunkin-donuts.de/", "cuisine": "donut;coffee_shop", "diet:vegetarian": "yes", "indoor_seating": "yes", "level": "0", "name": "Dunkin'", "opening_hours": "Mo-Su 08:00-23:00", "outdoor_seating": "yes", "smoking": "outside", "takeaway": "yes", "toilets:wheelchair": "yes", "wheelchair": "yes"}}, {"type": "node", "id": 89274888, "lat": 52.519834, "lon": 13.4111159, "tags": {"addr:city": "Berlin", "addr:housenumber": "5", "addr:postcode": "10178", "addr:street": "Rathausstra\u00dfe", "amenity": "pharmacy", "check_date": "2023-03-10", "dispensing": "yes", "healthcare": "pharmacy", "level": "0", "name": "Bezirksapotheke am Roten Rathaus", "opening_hours": "Mo-Fr 09:00-19:30; Sa 10:00-19:00", "operator": "BEZIRKSapotheke", "phone": "+49 30 27 58 30 83", "website": "https://www.bezirksapotheke.de/amrotenrathaus/", "wheelchair": "yes"}}, {"type": "node", "id": 89274938, "lat": 52.5195321, "lon": 13.4103508, "tags": {"amenity": "cafe", "brand": "Segafredo", "brand:wikidata": "Q21282762", "check_date:opening_hours": "2023-06-10", "cuisine": "coffee_shop", "indoor_seating": "yes", "level": "0", "name": "Segafredo", "outdoor_seating": "yes", "smoking": "outside", "takeaway": "yes"}}, {"type": "node", "id": 89275075, "lat": 52.5180123, "lon": 13.4071626, "tags": {"amenity": "restaurant", "cuisine": "turkish", "name": "Azem", "smoking": "no"}}, {"type": "node", "id": 89275135, "lat": 52.5175872, "lon": 13.4058989, "tags": {"addr:city": "Berlin", "addr:country": "DE", "addr:housenumber": "21", "addr:postcode": "10178", "addr:street": "Rathausstra\u00dfe", "addr:suburb": "Mitte", "amenity": "restaurant", "contact:facebook": "https://www.facebook.com/mutterhoppe", "contact:instagram": "https://www.instagram.com/mutter_hoppe/", "contact:phone": "+49 30 24720603", "contact:website": "https://www.mutterhoppe.de/", "cuisine": "german", "diet:vegetarian": "yes", "indoor_seating": "yes", "level": "0", "name": "Mutter Hoppe", "opening_hours": "Mo-Sa 11:30-22:00+", "outdoor_seating": "yes", "payment:cards": "yes", "payment:cash": "yes", "reservation": "yes", "smoking": "outside", "toilets": "yes", "toilets:wheelchair": "no", "website:menu": "https://www.mutterhoppe.de/speisen-and-getranke/", "wheelchair": "no"}}, {"type": "node", "id": 89275143, "lat": 52.5172681, "lon": 13.4050245, "tags": {"addr:city": "Berlin", "addr:country": "DE", "addr:housenumber": "25", "addr:postcode": "10178", "addr:street": "Rathausstra\u00dfe", "addr:suburb": "Mitte", "amenity": "restaurant", "contact:fax": "+49-30-97005796", "contact:phone": "+49-30-97005787", "cuisine": "regional", "indoor_seating": "yes", "name": "Julchen Hoppe", "opening_hours": "Mo-Fr 11:30+", "outdoor_seating": "yes", "smoking": "no", "toilets:wheelchair": "no", "website": "https://julchen-hoppe.eatbu.com/?lang=de", "wheelchair": "yes"}}, {"type": "node", "id": 89275182, "lat": 52.5133809, "lon": 13.4053524, "tags": {"addr:city": "Berlin", "addr:country": "DE", "addr:housenumber": "19", "addr:postcode": "10178", "addr:street": "Gertraudenstra\u00dfe", "addr:suburb": "Mitte", "amenity": "pharmacy", "check_date:opening_hours": "2024-06-03", "contact:email": "gesundheit@fischerinsel-apotheke.de", "contact:phone": "+49 30 76 77 18 44", "contact:website": "http://fischerinsel-apotheke.de/", "dispensing": "yes", "healthcare": "pharmacy", "name": "Fischerinsel-Apotheke", "opening_hours": "Mo-Fr 08:00-19:00; Sa 08:30-14:00", "operator": "Ralf Goepfert e.K.", "owner": "Ralf Goepfert e.K.", "wheelchair": "yes"}}, {"type": "node", "id": 89275203, "lat": 52.512146, "lon": 13.4081288, "tags": {"addr:city": "Berlin", "addr:country": "DE", "addr:housenumber": "13", "addr:postcode": "10179", "addr:street": "Neue Ro\u00dfstra\u00dfe", "addr:suburb": "Mitte", "amenity": "restaurant", "contact:email": "omermalik@hotmail.de", "contact:fax": "+49 30 24600940", "contact:phone": "+49 30 24600950", "contact:website": "https://shezan-liefer.de/", "cuisine": "indian", "indoor_seating": "yes", "name": "Shezan", "opening_hours": "Mo-Su 11:30-23:30", "outdoor_seating": "yes", "smoking": "no", "wheelchair": "limited"}}, {"type": "node", "id": 89312691, "lat": 52.5226551, "lon": 13.41272, "tags": {"addr:city": "Berlin", "amenity": "fast_food", "brand": "Burger King", "brand:wikidata": "Q177054", "brand:wikipedia": "en:Burger King", "cuisine": "burger", "indoor_seating": "yes", "internet_access": "wlan", "name": "Burger King", "name:ja": "\u30d0\u30fc\u30ac\u30fc\u30ad\u30f3\u30b0", "opening_hours": "Mo-Th 10:00-22:00; Fr,Sa 10:00-23:00; Su 11:00-22:00", "outdoor_seating": "yes", "smoking": "no", "surveillance": "indoor", "takeaway": "yes", "toilets:wheelchair": "no", "wheelchair": "limited", "wheelchair:description": "Keine Behindertentoilette! Die Toiletten befinden sich im Untergeschoss"}}, {"type": "node", "id": 100532363, "lat": 52.5218348, "lon": 13.375386}, {"type": "node", "id": 100532364, "lat": 52.5220875, "lon": 13.3749421}, {"type": "node", "id": 100532365, "lat": 52.522313, "lon": 13.3744843}, {"type": "node", "id": 100532366, "lat": 52.5225738, "lon": 13.3738034}, {"type": "node", "id": 100532367, "lat": 52.5227069, "lon": 13.3732179}, {"type": "node", "id": 100532369, "lat": 52.5227742, "lon": 13.3726817}, {"type": "node", "id": 100532370, "lat": 52.5228041, "lon": 13.3719072}, {"type": "node", "id": 100532372, "lat": 52.5226793, "lon": 13.3707963}, {"type": "node", "id": 100532374, "lat": 52.5225476, "lon": 13.3703451}, {"type": "node", "id": 100532375, "lat": 52.5223736, "lon": 13.3698924}, {"type": "node", "id": 100532376, "lat": 52.5220865, "lon": 13.3694543}, {"type": "node", "id": 100532378, "lat": 52.5218183, "lon": 13.3691895}, {"type": "node", "id": 102972919, "lat": 52.519933, "lon": 13.4007602}, {"type": "node", "id": 102972937, "lat": 52.5192885, "lon": 13.397676}, {"type": "node", "id": 102972941, "lat": 52.517817, "lon": 13.3988492}, {"type": "node", "id": 102972983, "lat": 52.5185409, "lon": 13.4028841}, {"type": "node", "id": 102972987, "lat": 52.5185324, "lon": 13.4028789}, {"type": "node", "id": 114106509, "lat": 52.5204611, "lon": 13.4084699}, {"type": "node", "id": 160476880, "lat": 52.5202942, "lon": 13.4000817}, {"type": "node", "id": 160476885, "lat": 52.5202432, "lon": 13.400201}, {"type": "node", "id": 160511969, "lat": 52.511927, "lon": 13.4034237}, {"type": "node", "id": 160511974, "lat": 52.5117808, "lon": 13.403628}, {"type": "node", "id": 160511985, "lat": 52.5116791, "lon": 13.4039228}, {"type": "node", "id": 160511995, "lat": 52.5115669, "lon": 13.4045986}, {"type": "node", "id": 160512004, "lat": 52.5116518, "lon": 13.4056199}, {"type": "node", "id": 164648648, "lat": 52.5063409, "lon": 13.4180456}, {"type": "node", "id": 164648652, "lat": 52.5060407, "lon": 13.4191255}, {"type": "node", "id": 164648654, "lat": 52.5059529, "lon": 13.4191662}, {"type": "node", "id": 164648655, "lat": 52.5053541, "lon": 13.4187326}, {"type": "node", "id": 164648657, "lat": 52.5052847, "lon": 13.4186437}, {"type": "node", "id": 164648658, "lat": 52.5052672, "lon": 13.4183966}, {"type": "node", "id": 164648661, "lat": 52.5054807, "lon": 13.4175949}, {"type": "node", "id": 164648662, "lat": 52.5056037, "lon": 13.4174353}, {"type": "node", "id": 164648663, "lat": 52.5056951, "lon": 13.4174594}, {"type": "node", "id": 164648665, "lat": 52.5063006, "lon": 13.4179043}, {"type": "node", "id": 171055215, "lat": 52.533101, "lon": 13.401513}, {"type": "node", "id": 171055217, "lat": 52.5325812, "lon": 13.3992941}, {"type": "node", "id": 171055218, "lat": 52.5315534, "lon": 13.3999026}, {"type": "node", "id": 171055221, "lat": 52.5317044, "lon": 13.4003358}, {"type": "node", "id": 171055223, "lat": 52.5313384, "lon": 13.4021166}, {"type": "node", "id": 171055229, "lat": 52.5324741, "lon": 13.4018294}, {"type": "node", "id": 171073634, "lat": 52.536584, "lon": 13.40069, "tags": {"addr:city": "Berlin", "addr:country": "DE", "addr:housenumber": "27", "addr:postcode": "10115", "addr:street": "Anklamer Stra\u00dfe", "addr:suburb": "Mitte", "amenity": "restaurant", "contact:facebook": "https://www.facebook.com/jaspersberlin/", "contact:instagram": "https://www.instagram.com/jaspersberlin/", "contact:phone": "+49 30 81798172", "contact:website": "https://jaspers-berlin.de/", "cuisine": "austrian;german", "indoor_seating": "yes", "internet_access": "wlan", "name": "Jasper's", "opening_hours": "Tu-Sa 17:00-23:00, Su 12:00-20:00", "operator": "Jasper Gastronomie GmbH", "outdoor_seating": "yes", "wheelchair": "no"}}, {"type": "node", "id": 174992735, "lat": 52.5371362, "lon": 13.4006804}, {"type": "node", "id": 174992736, "lat": 52.5377391, "lon": 13.4029369}, {"type": "node", "id": 174992738, "lat": 52.5372365, "lon": 13.4033471}, {"type": "node", "id": 174992740, "lat": 52.5366383, "lon": 13.4010544}, {"type": "node", "id": 185950215, "lat": 52.5189553, "lon": 13.4031489}, {"type": "node", "id": 185975876, "lat": 52.5042771, "lon": 13.4247187}, {"type": "node", "id": 190865547, "lat": 52.5146963, "lon": 13.4069342}, {"type": "node", "id": 190865548, "lat": 52.5145746, "lon": 13.4084194}, {"type": "node", "id": 190865549, "lat": 52.5142441, "lon": 13.4094141}, {"type": "node", "id": 190865551, "lat": 52.5140698, "lon": 13.4105541}, {"type": "node", "id": 190865552, "lat": 52.5140005, "lon": 13.4106561}, {"type": "node", "id": 190865553, "lat": 52.5137829, "lon": 13.4106582}, {"type": "node", "id": 190865554, "lat": 52.513655, "lon": 13.4104912}, {"type": "node", "id": 190865574, "lat": 52.5138053, "lon": 13.4124252}, {"type": "node", "id": 237436931, "lat": 52.504261, "lon": 13.42182}, {"type": "node", "id": 237436934, "lat": 52.5046757, "lon": 13.4221184}, {"type": "node", "id": 244487237, "lat": 52.5238789, "lon": 13.396673}, {"type": "node", "id": 248651127, "lat": 52.5295259, "lon": 13.3956385, "tags": {"addr:city": "Berlin", "addr:country": "DE", "addr:housenumber": "2", "addr:postcode": "10115", "addr:street": "Bergstra\u00dfe", "addr:suburb": "Mitte", "amenity": "bar", "check_date:opening_hours": "2025-07-27", "contact:phone": "+49 30 28389121", "contact:website": "https://zbarberlin.com", "description": "Bar mit Kulturprogramm im kleinen Kinosaal (Zinema)", "indoor_seating": "yes", "name": "Z-Bar", "opening_hours": "19:00+", "opening_hours:signed": "no", "operator": "Kulturverein Wechsel e.V.", "outdoor_seating": "yes", "smoking": "outside", "start_date": "1994", "wheelchair": "no"}}, {"type": "node", "id": 251930508, "lat": 52.5280265, "lon": 13.4121404}, {"type": "node", "id": 252205427, "lat": 52.5117098, "lon": 13.4056049}, {"type": "node", "id": 253147320, "lat": 52.5095347, "lon": 13.4078989}, {"type": "node", "id": 253147322, "lat": 52.5102199, "lon": 13.41027}, {"type": "node", "id": 253147323, "lat": 52.5105383, "lon": 13.4099563}, {"type": "node", "id": 253147325, "lat": 52.5097426, "lon": 13.4076776}, {"type": "node", "id": 256754864, "lat": 52.5267482, "lon": 13.413864}, {"type": "node", "id": 256754865, "lat": 52.5268665, "lon": 13.4141617}, {"type": "node", "id": 256754866, "lat": 52.52678, "lon": 13.4144571}, {"type": "node", "id": 256754867, "lat": 52.5266824, "lon": 13.4143781}, {"type": "node", "id": 256754868, "lat": 52.5267419, "lon": 13.4141629}, {"type": "node", "id": 256754869, "lat": 52.526705, "lon": 13.4140333}, {"type": "node", "id": 258485749, "lat": 52.5222417, "lon": 13.396197}, {"type": "node", "id": 258485751, "lat": 52.5220907, "lon": 13.3969546}, {"type": "node", "id": 258485752, "lat": 52.5223349, "lon": 13.3956415}, {"type": "node", "id": 258485755, "lat": 52.52223, "lon": 13.3998605}, {"type": "node", "id": 258485756, "lat": 52.5222399, "lon": 13.400249}, {"type": "node", "id": 258485758, "lat": 52.5219648, "lon": 13.40039}, {"type": "node", "id": 258485759, "lat": 52.5216837, "lon": 13.4003752}, {"type": "node", "id": 258485760, "lat": 52.5214075, "lon": 13.4003601}, {"type": "node", "id": 258485762, "lat": 52.522004, "lon": 13.3976975}, {"type": "node", "id": 258485763, "lat": 52.5220475, "lon": 13.3976661}, {"type": "node", "id": 258485764, "lat": 52.5221206, "lon": 13.3980339}, {"type": "node", "id": 258485765, "lat": 52.5221893, "lon": 13.3987046}, {"type": "node", "id": 258497093, "lat": 52.5219316, "lon": 13.4047999, "tags": {"addr:city": "Berlin", "addr:country": "DE", "addr:housenumber": "19", "addr:postcode": "10178", "addr:street": "Rosenstra\u00dfe", "addr:suburb": "Mitte", "amenity": "restaurant", "check_date": "2024-04-29", "check_date:opening_hours": "2023-03-16", "contact:phone": "+49 30 84711058", "cuisine": "asian", "diet:vegan": "yes", "diet:vegetarian": "yes", "indoor_seating": "yes", "name": "Eden", "opening_hours": "Mo-Fr 12:00-23:00; Sa 13:00-23:00; Su 17:00-23:00", "opening_hours:signed": "no", "outdoor_seating": "yes", "payment:cash": "yes", "payment:credit_cards": "yes", "payment:debit_cards": "yes", "smoking": "outside", "source": "survey", "toilets:wheelchair": "yes", "wheelchair": "yes"}}, {"type": "node", "id": 258770976, "lat": 52.5247803, "lon": 13.396487}, {"type": "node", "id": 258770995, "lat": 52.5248739, "lon": 13.3970284}, {"type": "node", "id": 258770996, "lat": 52.5248593, "lon": 13.3969437}, {"type": "node", "id": 258771000, "lat": 52.5248465, "lon": 13.3968705}, {"type": "node", "id": 258771001, "lat": 52.524832, "lon": 13.396786}, {"type": "node", "id": 258771003, "lat": 52.5247945, "lon": 13.3965698}, {"type": "node", "id": 258771016, "lat": 52.524956, "lon": 13.3975133}, {"type": "node", "id": 258771017, "lat": 52.5249421, "lon": 13.3974291}, {"type": "node", "id": 258771020, "lat": 52.5249299, "lon": 13.3973566}, {"type": "node", "id": 258771021, "lat": 52.5249155, "lon": 13.3972693}, {"type": "node", "id": 258771189, "lat": 52.5250845, "lon": 13.398275}, {"type": "node", "id": 258771190, "lat": 52.5250686, "lon": 13.3981793}, {"type": "node", "id": 258771193, "lat": 52.5250558, "lon": 13.3981055}, {"type": "node", "id": 258771194, "lat": 52.5250393, "lon": 13.3980084}, {"type": "node", "id": 258771213, "lat": 52.5250872, "lon": 13.3982906}, {"type": "node", "id": 258771218, "lat": 52.5250237, "lon": 13.3983203}, {"type": "node", "id": 258771533, "lat": 52.5245561, "lon": 13.396386}, {"type": "node", "id": 260122367, "lat": 52.5274019, "lon": 13.3993265}, {"type": "node", "id": 260122368, "lat": 52.5276467, "lon": 13.4006449}, {"type": "node", "id": 260122369, "lat": 52.5268017, "lon": 13.4012102}, {"type": "node", "id": 260924276, "lat": 52.526008, "lon": 13.3958114}, {"type": "node", "id": 260924286, "lat": 52.5260559, "lon": 13.3961024}, {"type": "node", "id": 260924344, "lat": 52.5253505, "lon": 13.3961353}, {"type": "node", "id": 262519198, "lat": 52.5175616, "lon": 13.3808886}, {"type": "node", "id": 262532436, "lat": 52.5101518, "lon": 13.398748}, {"type": "node", "id": 262532437, "lat": 52.5103753, "lon": 13.3987139}, {"type": "node", "id": 262532522, "lat": 52.5102511, "lon": 13.3971135}, {"type": "node", "id": 262532523, "lat": 52.5099982, "lon": 13.3972215}, {"type": "node", "id": 262532524, "lat": 52.5099421, "lon": 13.3963262}, {"type": "node", "id": 262532525, "lat": 52.510211, "lon": 13.3962823}, {"type": "node", "id": 262806237, "lat": 52.521973, "lon": 13.419108}, {"type": "node", "id": 262820868, "lat": 52.5184665, "lon": 13.4121903}, {"type": "node", "id": 262820875, "lat": 52.5182591, "lon": 13.4123347}, {"type": "node", "id": 266145627, "lat": 52.5211518, "lon": 13.3709016}, {"type": "node", "id": 266145628, "lat": 52.5209989, "lon": 13.3708996}, {"type": "node", "id": 266145629, "lat": 52.5209994, "lon": 13.3716588}, {"type": "node", "id": 266145630, "lat": 52.5212018, "lon": 13.3716618}, {"type": "node", "id": 266183398, "lat": 52.5120515, "lon": 13.3985841}, {"type": "node", "id": 266183399, "lat": 52.5120815, "lon": 13.3984855}, {"type": "node", "id": 266589502, "lat": 52.5275024, "lon": 13.4061181}, {"type": "node", "id": 266589503, "lat": 52.5276592, "lon": 13.4062108}, {"type": "node", "id": 266589526, "lat": 52.5275678, "lon": 13.405679}, {"type": "node", "id": 267387167, "lat": 52.5312321, "lon": 13.3889446}, {"type": "node", "id": 267387168, "lat": 52.5312223, "lon": 13.3888375}, {"type": "node", "id": 267640973, "lat": 52.5065647, "lon": 13.4121625}, {"type": "node", "id": 267640974, "lat": 52.5063641, "lon": 13.4126811}, {"type": "node", "id": 267851662, "lat": 52.5197141, "lon": 13.3877509, "tags": {"addr:housenumber": "25", "addr:street": "Georgenstra\u00dfe", "amenity": "restaurant", "check_date": "2025-06-30", "check_date:smoking": "2025-06-30", "cuisine": "vietnamese", "email": "info@hoa-rong.com", "name": "Hoa Rong", "opening_hours": "Mo-Fr 11:30-23:00; Sa 13:00-23:00", "payment:credit_cards": "yes", "payment:debit_cards": "yes", "payment:maestro": "yes", "payment:mastercard": "yes", "payment:visa": "yes", "phone": "+493043666683", "smoking": "no", "website": "https://www.hoa-rong.com/", "wheelchair": "yes"}}, {"type": "node", "id": 268320470, "lat": 52.5314719, "lon": 13.4024687}, {"type": "node", "id": 269121105, "lat": 52.5140144, "lon": 13.4135358}, {"type": "node", "id": 269121106, "lat": 52.5136454, "lon": 13.4138627}, {"type": "node", "id": 269121213, "lat": 52.5132077, "lon": 13.4144456}, {"type": "node", "id": 269121214, "lat": 52.5131949, "lon": 13.4143742}, {"type": "node", "id": 269121228, "lat": 52.5134084, "lon": 13.4141107}, {"type": "node", "id": 269478054, "lat": 52.507579, "lon": 13.414104, "tags": {"addr:city": "Berlin", "addr:country": "DE", "addr:housenumber": "15", "addr:postcode": "10179", "addr:street": "Heinrich-Heine-Stra\u00dfe", "addr:suburb": "Mitte", "amenity": "pharmacy", "check_date:opening_hours": "2025-06-08", "contact:phone": "+49 30 27560275", "contact:website": "http://www.apotheke-am-engelbecken.de", "dispensing": "yes", "healthcare": "pharmacy", "name": "Apotheke am Engelbecken", "opening_hours": "Mo-Fr 08:00-19:00; Sa 08:30-14:00", "operator": "Ralf Goepfert e.K.", "toilets:wheelchair": "no", "wheelchair": "yes"}}, {"type": "node", "id": 269479009, "lat": 52.513684, "lon": 13.4060088, "tags": {"addr:city": "Berlin", "addr:country": "DE", "addr:housenumber": "12", "addr:postcode": "10179", "addr:street": "Fischerinsel", "addr:suburb": "Mitte", "brand": "Edeka", "brand:wikidata": "Q701755", "brand:wikipedia": "de:Edeka", "contact:website": "https://www.edeka.de/eh/minden-hannover/edeka-ungefroren-fischerinsel-12/index-2.jsp", "level": "0", "name": "Edeka Ungefroren", "opening_hours": "Mo-Sa 07:00-21:00", "organic": "yes", "shop": "supermarket", "toilets": "no", "toilets:wheelchair": "yes", "wheelchair": "yes"}}, {"type": "node", "id": 269960847, "lat": 52.5328179, "lon": 13.3695161}, {"type": "node", "id": 269960848, "lat": 52.532054, "lon": 13.3702167}, {"type": "node", "id": 269960849, "lat": 52.5315362, "lon": 13.3705964}, {"type": "node", "id": 270676317, "lat": 52.5280386, "lon": 13.374056}, {"type": "node", "id": 270676319, "lat": 52.5300003, "lon": 13.3718892}, {"type": "node", "id": 270921908, "lat": 52.5346479, "lon": 13.3682834}, {"type": "node", "id": 270923429, "lat": 52.5367531, "lon": 13.371524}, {"type": "node", "id": 271149539, "lat": 52.5367509, "lon": 13.3680168}, {"type": "node", "id": 271149541, "lat": 52.5364915, "lon": 13.3692672}, {"type": "node", "id": 271149542, "lat": 52.5362921, "lon": 13.3688436}, {"type": "node", "id": 271149543, "lat": 52.53654, "lon": 13.3685318}, {"type": "node", "id": 271149544, "lat": 52.5364662, "lon": 13.3683708}, {"type": "node", "id": 271808636, "lat": 52.5248698, "lon": 13.4139063}, {"type": "node", "id": 271808638, "lat": 52.52464, "lon": 13.4144387}, {"type": "node", "id": 271808639, "lat": 52.5243204, "lon": 13.414066}, {"type": "node", "id": 271808640, "lat": 52.5245501, "lon": 13.4135336}, {"type": "node", "id": 273746538, "lat": 52.5318672, "lon": 13.3763022}, {"type": "node", "id": 273746544, "lat": 52.5345152, "lon": 13.3736978}, {"type": "node", "id": 275525457, "lat": 52.5214731, "lon": 13.4047365}, {"type": "node", "id": 275564580, "lat": 52.525912, "lon": 13.3869997, "tags": {"addr:city": "Berlin", "addr:country": "DE", "addr:housenumber": "125", "addr:postcode": "10117", "addr:street": "Friedrichstra\u00dfe", "addr:suburb": "Mitte", "air_conditioning": "yes", "amenity": "cafe", "brand": "Espresso House", "brand:wikidata": "Q10489162", "brand:wikipedia": "de:Espresso_House", "cuisine": "coffee_shop", "indoor_seating": "yes", "internet_access": "wlan", "name": "Espresso House", "opening_hours": "Mo-Fr 07:30-20:00; Sa,Su 08:30-20:00", "outdoor_seating": "yes", "phone": "+493027582577", "smoking": "outside", "takeaway": "yes", "website": "https://de.espressohouse.com/find-us/b-friedrichstrase", "wheelchair": "no", "wheelchair:description": "Kein Rollstuhlgerechter Zugan (2 Hohe Stufen), Toiletten im Untergeschoss (nur Treppe)"}}, {"type": "node", "id": 275803604, "lat": 52.5304622, "lon": 13.3951041}, {"type": "node", "id": 275803605, "lat": 52.5306342, "lon": 13.3956609}, {"type": "node", "id": 275803606, "lat": 52.5307217, "lon": 13.3956288}, {"type": "node", "id": 275803607, "lat": 52.5308558, "lon": 13.3966521}, {"type": "node", "id": 275803608, "lat": 52.5305049, "lon": 13.3968328}, {"type": "node", "id": 275803609, "lat": 52.5304463, "lon": 13.3964403}, {"type": "node", "id": 275803610, "lat": 52.530494, "lon": 13.3964155}, {"type": "node", "id": 275803613, "lat": 52.5303686, "lon": 13.3951541}, {"type": "node", "id": 275887592, "lat": 52.5236295, "lon": 13.386715, "tags": {"amenity": "pharmacy", "check_date": "2025-03-01", "check_date:opening_hours": "2025-03-01", "dispensing": "yes", "email": "info@galenus-berlin.de", "fax": "+49 30 2825537", "healthcare": "pharmacy", "name": "Galenus-Apotheke", "opening_hours": "Mo-Fr 08:00-19:00; PH off", "phone": "+49 30 2827871", "website": "https://galenus-berlin.de/", "wheelchair": "no"}}, {"type": "node", "id": 279301578, "lat": 52.5264453, "lon": 13.3879477, "tags": {"addr:city": "Berlin", "addr:housenumber": "133", "addr:postcode": "10115", "addr:street": "Linienstra\u00dfe", "amenity": "restaurant", "cuisine": "german", "indoor_seating": "yes", "name": "Gambrinus", "outdoor_seating": "yes", "smoking": "no", "wheelchair": "no"}}, {"type": "node", "id": 279301588, "lat": 52.5264338, "lon": 13.3877486, "tags": {"addr:housenumber": "134", "addr:street": "Linienstra\u00dfe", "amenity": "restaurant", "bar": "yes", "brewery": "no", "check_date": "2025-06-30", "check_date:smoking": "2025-06-30", "cuisine": "sushi", "diet:vegan": "yes", "diet:vegetarian": "yes", "indoor_seating": "yes", "level": "0", "name": "Sahoi", "opening_hours": "Mo-Fr 12:00-23:00; Sa-Su 18:00-23:00", "outdoor_seating": "yes", "reservation": "yes", "smoking": "no", "website": "https://www.sahoi.club/"}}, {"type": "node", "id": 279301771, "lat": 52.5264639, "lon": 13.3882449, "tags": {"addr:city": "Berlin", "addr:country": "DE", "addr:housenumber": "132", "addr:postcode": "10115", "addr:street": "Linienstra\u00dfe", "addr:suburb": "Mitte", "amenity": "fast_food", "check_date": "2025-06-30", "check_date:smoking": "2025-06-30", "diet:vegetarian": "yes", "indoor_seating": "yes", "name": "Dada Falafel", "outdoor_seating": "yes", "phone": "+49 30 27596927", "smoking": "no", "website": "https://www.instagram.com/dadafalafel/", "wheelchair:description": "Die Theke ist erreichbar aber der separate Speisesaal nicht!"}}, {"type": "node", "id": 279302123, "lat": 52.5259421, "lon": 13.3896272, "tags": {"addr:city": "Berlin", "addr:country": "DE", "addr:housenumber": "45", "addr:postcode": "10117", "addr:street": "Oranienburger Stra\u00dfe", "amenity": "restaurant", "changing_table:location": "room", "check_date": "2024-02-06", "cuisine": "indian", "delivery": "yes", "diet:halal": "yes", "diet:vegan": "yes", "diet:vegetarian": "yes", "indoor_seating": "yes", "name": "Amrit", "opening_hours": "Su-Th 11:30-24:00,Fr-Sa 11:30-01:00; PH off", "outdoor_seating": "yes", "phone": "+49 30 28884840", "reservation": "yes", "reusable_packaging:offer": "yes", "surveillance": "yes", "website": "https://www.amrit.de/", "wheelchair": "no"}}, {"type": "node", "id": 284557391, "lat": 52.521329, "lon": 13.4087362}, {"type": "node", "id": 284557403, "lat": 52.5210308, "lon": 13.4081128}, {"type": "node", "id": 284557410, "lat": 52.5209642, "lon": 13.4083793}, {"type": "node", "id": 284557428, "lat": 52.521137, "lon": 13.4083397}, {"type": "node", "id": 284557438, "lat": 52.5202881, "lon": 13.4100348}, {"type": "node", "id": 284557448, "lat": 52.5199963, "lon": 13.4094319}, {"type": "node", "id": 284557457, "lat": 52.5203492, "lon": 13.4086194}, {"type": "node", "id": 284557656, "lat": 52.5201526, "lon": 13.4093972}, {"type": "node", "id": 284557664, "lat": 52.5200892, "lon": 13.4096392}, {"type": "node", "id": 284557682, "lat": 52.520272, "lon": 13.4089483}, {"type": "node", "id": 284557700, "lat": 52.5206788, "lon": 13.4084217}, {"type": "node", "id": 284557720, "lat": 52.5212288, "lon": 13.4085316}, {"type": "node", "id": 284557728, "lat": 52.5211728, "lon": 13.4087676}, {"type": "node", "id": 284557737, "lat": 52.5203397, "lon": 13.4098272}, {"type": "node", "id": 284557746, "lat": 52.5201963, "lon": 13.4098579}, {"type": "node", "id": 284842680, "lat": 52.5175844, "lon": 13.3816451}, {"type": "node", "id": 284842687, "lat": 52.5175891, "lon": 13.3817142}, {"type": "node", "id": 284842697, "lat": 52.518047, "lon": 13.3815702}, {"type": "node", "id": 284842703, "lat": 52.5179959, "lon": 13.3808245}, {"type": "node", "id": 287297683, "lat": 52.5286587, "lon": 13.4090078, "tags": {"addr:housenumber": "56", "addr:street": "Torstra\u00dfe", "amenity": "fast_food", "check_date": "2023-01-03", "check_date:opening_hours": "2023-03-16", "cuisine": "kebab", "indoor_seating": "yes", "level": "0", "name": "Luxa", "opening_hours:signed": "no", "outdoor_seating": "yes", "smoking": "outside", "wheelchair": "no"}}, {"type": "node", "id": 288384161, "lat": 52.5142324, "lon": 13.4069455}, {"type": "node", "id": 288384303, "lat": 52.5144389, "lon": 13.4073819}, {"type": "node", "id": 295296118, "lat": 52.5336682, "lon": 13.3690822}, {"type": "node", "id": 295296120, "lat": 52.5335139, "lon": 13.368909}, {"type": "node", "id": 298791704, "lat": 52.5336423, "lon": 13.4016366, "tags": {"access": "yes", "leisure": "playground", "wheelchair": "yes"}}, {"type": "node", "id": 302245552, "lat": 52.5210833, "lon": 13.4074194}, {"type": "node", "id": 302248898, "lat": 52.5196051, "lon": 13.4058223}, {"type": "node", "id": 302248992, "lat": 52.5198413, "lon": 13.4054854}, {"type": "node", "id": 302864488, "lat": 52.5259949, "lon": 13.3894424, "tags": {"addr:city": "Berlin", "addr:country": "DE", "addr:housenumber": "45", "addr:postcode": "10117", "addr:street": "Oranienburger Stra\u00dfe", "addr:suburb": "Mitte", "amenity": "restaurant", "contact:phone": "+493028040505", "cuisine": "cuban", "indoor_seating": "yes", "name": "QBA", "opening_hours": "Mo-Th 16:00-00:00, Fr,Sa 16:00-03:00, Su 16:00-24:00", "outdoor_seating": "yes", "smoking": "no", "website": "http://www.qba-restaurant.de/", "wheelchair": "no"}}, {"type": "node", "id": 303436993, "lat": 52.5255007, "lon": 13.3792798}, {"type": "node", "id": 303436996, "lat": 52.5256109, "lon": 13.379999}, {"type": "node", "id": 305259644, "lat": 52.5152592, "lon": 13.3983179, "tags": {"amenity": "cafe", "contact:facebook": "https://www.facebook.com/thecoffeeshopauswaertigesamt/", "cuisine": "coffee_shop", "description": "Caf\u00e9 im Ausw\u00e4rtigen Amt", "diet:vegetarian": "yes", "name": "The Coffee Shop", "smoking": "no", "wheelchair": "yes"}}, {"type": "node", "id": 305260598, "lat": 52.5191167, "lon": 13.3985266, "tags": {"amenity": "cafe", "indoor_seating": "yes", "name": "Caf\u00e9 im Alten Museum", "name:ja": "\u65e7\u535a\u7269\u9928 \u30ab\u30d5\u30a7", "opening_hours": "PH,Tu-Su 10:00-18:00", "outdoor_seating": "no", "smoking": "no", "wheelchair": "limited"}}, {"type": "node", "id": 305370030, "lat": 52.5371454, "lon": 13.4015651}, {"type": "node", "id": 305374539, "lat": 52.5167769, "lon": 13.3984548}, {"type": "node", "id": 305374541, "lat": 52.5167716, "lon": 13.3986446}, {"type": "node", "id": 305374542, "lat": 52.5163959, "lon": 13.3989864}, {"type": "node", "id": 305374544, "lat": 52.5163395, "lon": 13.3989641}, {"type": "node", "id": 305374545, "lat": 52.5162413, "lon": 13.3985845}, {"type": "node", "id": 305463781, "lat": 52.5167245, "lon": 13.3984166}, {"type": "node", "id": 305463816, "lat": 52.5167975, "lon": 13.398554}, {"type": "node", "id": 305558515, "lat": 52.5355713, "lon": 13.3819486}, {"type": "node", "id": 305558518, "lat": 52.5328603, "lon": 13.3851303}, {"type": "node", "id": 305558519, "lat": 52.5333186, "lon": 13.386252}, {"type": "node", "id": 305558522, "lat": 52.5328437, "lon": 13.3851263}, {"type": "node", "id": 305558897, "lat": 52.5338774, "lon": 13.3853402, "tags": {"barrier": "gate"}}, {"type": "node", "id": 308410291, "lat": 52.5213767, "lon": 13.4096608, "tags": {"air_conditioning": "no", "amenity": "cafe", "cuisine": "bubble_tea", "indoor_seating": "yes", "name": "Tudo", "opening_hours": "Mo 11:00-21:00; Tu-Su 11:00-22:00", "opening_hours:signed": "no", "outdoor_seating": "yes", "payment:credit_cards": "yes", "payment:debit_cards": "yes", "phone": "03027592932", "smoking": "outside", "website": "https://tudo.berlin/", "wheelchair": "yes"}}, {"type": "node", "id": 309902514, "lat": 52.5252025, "lon": 13.4018544, "tags": {"addr:city": "Berlin", "addr:country": "DE", "addr:housenumber": "6", "addr:postcode": "10178", "addr:street": "Sophienstra\u00dfe", "addr:suburb": "Mitte", "amenity": "bar", "check_date:opening_hours": "2024-11-22", "contact:website": "http://www.billardkoeh.de", "name": "Billardsalon K\u00f6h", "opening_hours": "Mo-Sa 17:00+, Su 16:00+", "smoking": "no", "sport": "billiards", "toilets:wheelchair": "no", "wheelchair": "yes"}}, {"type": "node", "id": 310350755, "lat": 52.5316488, "lon": 13.3896886}, {"type": "node", "id": 313933591, "lat": 52.5355836, "lon": 13.4063535, "tags": {"addr:city": "Berlin", "addr:country": "DE", "addr:housenumber": "38", "addr:postcode": "10119", "addr:street": "Kastanienallee", "addr:suburb": "Mitte", "amenity": "pharmacy", "check_date": "2024-06-10", "contact:fax": "030 \u2013 91 20 79 99", "contact:phone": "030 \u2013 91 20 79 90", "dispensing": "yes", "healthcare": "pharmacy", "level": "0", "name": "Arkona Apotheke", "opening_hours": "Mo-Fr 08:00-20:00; Sa 08:00-18:00"}}, {"type": "node", "id": 314752471, "lat": 52.5352762, "lon": 13.3993689, "tags": {"addr:city": "Berlin", "addr:country": "DE", "addr:housenumber": "38", "addr:postcode": "10115", "addr:street": "Anklamer Stra\u00dfe", "addr:suburb": "Mitte", "amenity": "restaurant", "contact:facebook": "https://www.facebook.com/lemongrass.berlin", "contact:phone": "+49 30 34623307", "contact:website": "https://lemongrass.berlin", "cuisine": "asian", "diet:vegan": "yes", "diet:vegetarian": "yes", "indoor_seating": "yes", "name": "Lemongrass", "opening_hours": "Mo-Su 12:00-23:00", "outdoor_seating": "yes", "smoking": "outside", "takeaway": "yes", "toilets:wheelchair": "no", "wheelchair": "limited"}}, {"type": "node", "id": 314752483, "lat": 52.5351623, "lon": 13.3986537, "tags": {"addr:city": "Berlin", "addr:country": "DE", "addr:housenumber": "41", "addr:postcode": "10115", "addr:street": "Anklamer Stra\u00dfe", "addr:suburb": "Mitte", "amenity": "cafe", "indoor_seating": "yes", "name": "caffe e cioccolata", "opening_hours": "Mo-Fr 09:37-17:54; Sa 10:28-15:20", "outdoor_seating": "yes", "smoking": "no", "wheelchair": "no"}}, {"type": "node", "id": 315549929, "lat": 52.536814, "lon": 13.402935, "tags": {"addr:city": "Berlin", "addr:country": "DE", "addr:housenumber": "8", "addr:postcode": "10435", "addr:street": "Granseer Stra\u00dfe", "addr:suburb": "Mitte", "air_conditioning": "no", "amenity": "cafe", "contact:phone": "+49 30 54713326", "indoor_seating": "yes", "name": "La L\u00facuma", "opening_hours": "Tu-Fr 14:30-24:00; Sa 13:00-23:00; Su 15:00-21:00", "outdoor_seating": "yes", "smoking": "outside", "wheelchair": "no"}}, {"type": "node", "id": 315738178, "lat": 52.5373544, "lon": 13.4007116, "tags": {"addr:city": "Berlin", "addr:country": "DE", "addr:housenumber": "10", "addr:postcode": "10435", "addr:street": "Arkonaplatz", "addr:suburb": "Mitte", "amenity": "cafe", "atm": "no", "contact:email": "mail@cup-arkona.de", "contact:phone": "+49 30 40301133", "contact:website": "http://www.cup-arkona.de/", "description": "Eis Caf\u00e9 Bistro", "drive_through": "no", "indoor_seating": "yes", "internet_access": "no", "name": "Cup Arkona", "opening_hours": "Mo-Fr 08:00-19:30; Sa-Su,PH 09:00-19:30", "operator": "Lukas N\u00fcrnberger", "outdoor_seating": "yes", "smoking": "outside", "source": "local_knowledge", "takeaway": "yes", "website": "http://www.cup-arkona.de/", "wheelchair": "limited"}}, {"type": "node", "id": 316883775, "lat": 52.5373736, "lon": 13.4040229, "tags": {"addr:city": "Berlin", "addr:country": "DE", "addr:housenumber": "14", "addr:postcode": "10435", "addr:street": "F\u00fcrstenberger Stra\u00dfe", "addr:suburb": "Mitte", "amenity": "cafe", "check_date": "2024-06-22", "contact:facebook": "https://www.facebook.com/fraeuleindietrich", "contact:website": "https://cafefraeuleindietrich.eatbu.com", "indoor_seating": "yes", "internet_access": "wlan", "name": "Cafe Fr\u00e4ulein Dietrich", "opening_hours": "Tu-Su 09:00-18:00", "outdoor_seating": "yes", "payment:cash": "yes", "payment:credit_cards": "yes", "payment:debit_cards": "yes", "phone": "+49 176 34538424", "takeaway": "yes", "wheelchair": "limited"}}, {"type": "node", "id": 317393118, "lat": 52.5213052, "lon": 13.385266, "tags": {"addr:city": "Berlin", "addr:country": "DE", "addr:housenumber": "13", "addr:postcode": "10117", "addr:street": "Albrechtstra\u00dfe", "addr:suburb": "Mitte", "amenity": "restaurant", "contact:email": "albrechtstrasse@machiavelli-berlin.de", "contact:fax": "+49 30 28046402", "contact:phone": "+49 30 28046401", "contact:website": "https://machiavelli-berlin.de/", "cuisine": "italian", "indoor_seating": "yes", "name": "Machiavelli", "opening_hours": "10:00-01:00", "outdoor_seating": "yes", "payment:american_express": "yes", "payment:mastercard": "yes", "payment:visa": "yes", "reservation": "yes", "smoking": "no", "toilets:wheelchair": "no", "wheelchair": "limited"}}, {"type": "node", "id": 317461455, "lat": 52.5287446, "lon": 13.3732526}, {"type": "node", "id": 317461457, "lat": 52.5289337, "lon": 13.3730703}, {"type": "node", "id": 317461653, "lat": 52.5304192, "lon": 13.3760554}, {"type": "node", "id": 317465075, "lat": 52.5299623, "lon": 13.3747851}, {"type": "node", "id": 318149465, "lat": 52.521073, "lon": 13.4122205, "tags": {"amenity": "fast_food", "brand": "McDonald's", "brand:wikidata": "Q38076", "brand:wikipedia": "en:McDonald's", "cuisine": "burger", "diet:vegetarian": "limited", "indoor_seating": "yes", "level": "0", "name": "McDonald's", "outdoor_seating": "no", "smoking": "no", "takeaway": "yes", "wheelchair": "yes"}}, {"type": "node", "id": 318149466, "lat": 52.5211976, "lon": 13.4118911, "tags": {"addr:city": "Berlin", "addr:country": "DE", "addr:housenumber": "2", "addr:postcode": "10179", "addr:street": "Dircksenstra\u00dfe", "addr:suburb": "Mitte", "amenity": "fast_food", "check_date": "2023-04-26", "check_date:opening_hours": "2023-01-11", "contact:phone": "+49 30 200738102", "delivery": "no", "drive_through": "no", "indoor_seating": "yes", "name": "Currywurst Express", "opening_hours": "Mo-We 08:00-23:30, Th-Sa 08:00-24:00+, Su 08:00-22:30", "opening_hours:signed": "no", "outdoor_seating": "no", "smoking": "no", "takeaway": "yes", "wheelchair": "yes"}}, {"type": "node", "id": 318526010, "lat": 52.5148686, "lon": 13.3811135, "tags": {"addr:city": "Berlin", "addr:country": "DE", "addr:housenumber": "75", "addr:postcode": "10117", "addr:street": "Wilhelmstra\u00dfe", "addr:suburb": "Mitte", "amenity": "restaurant", "contact:fax": "+49 30 22489940", "contact:phone": "+49 30 2297405", "cuisine": "italian", "currency:XBT": "yes", "diet:vegetarian": "yes", "indoor_seating": "yes", "name": "Viale dei Tigli", "opening_hours": "Mo-Su 12:00-24:00", "operator": "Idriz Feriki", "outdoor_seating": "yes", "payment:lightning": "yes", "payment:lightning_contactless": "yes", "payment:onchain": "no", "toilets:wheelchair": "no", "wheelchair": "limited"}}, {"type": "node", "id": 319013721, "lat": 52.5283771, "lon": 13.373756}, {"type": "node", "id": 319013750, "lat": 52.5287591, "lon": 13.3732953}, {"type": "node", "id": 319092509, "lat": 52.5267866, "lon": 13.4149448, "tags": {"amenity": "pharmacy", "check_date:opening_hours": "2025-01-25", "dispensing": "yes", "healthcare": "pharmacy", "name": "Merlin-Apotheke", "opening_hours": "Mo-We,Fr 08:00-18:30; Th 08:00-19:30; Sa 09:00-13:00", "wheelchair": "limited"}}, {"type": "node", "id": 319569225, "lat": 52.5201962, "lon": 13.4258956}, {"type": "node", "id": 319569226, "lat": 52.5201902, "lon": 13.4260037}, {"type": "node", "id": 319569227, "lat": 52.5200911, "lon": 13.4259889}, {"type": "node", "id": 319569228, "lat": 52.5200797, "lon": 13.4261937}, {"type": "node", "id": 319569229, "lat": 52.5201657, "lon": 13.4262066}, {"type": "node", "id": 319569230, "lat": 52.5201563, "lon": 13.4263752}, {"type": "node", "id": 319569231, "lat": 52.5200669, "lon": 13.4263618}, {"type": "node", "id": 319569232, "lat": 52.5200555, "lon": 13.4265659}, {"type": "node", "id": 319569233, "lat": 52.5201662, "lon": 13.4266157}, {"type": "node", "id": 319569234, "lat": 52.5201489, "lon": 13.4266991}, {"type": "node", "id": 319569236, "lat": 52.5201938, "lon": 13.4267223}, {"type": "node", "id": 319569237, "lat": 52.5202392, "lon": 13.4259021}, {"type": "node", "id": 320216659, "lat": 52.5343736, "lon": 13.4051897, "tags": {"addr:housenumber": "48", "addr:postcode": "10119", "addr:street": "Kastanienallee", "amenity": "fast_food", "check_date": "2024-06-10", "level": "0", "name": "Cult D\u00f6ner"}}, {"type": "node", "id": 320216715, "lat": 52.534207, "lon": 13.405011, "tags": {"addr:city": "Berlin", "addr:country": "DE", "addr:housenumber": "49", "addr:postcode": "10119", "addr:street": "Kastanienallee", "addr:suburb": "Mitte", "amenity": "restaurant", "check_date": "2025-06-30", "check_date:smoking": "2025-06-30", "contact:phone": "+49 30 48492651", "contact:website": "http://nautaberlin.com", "cuisine": "peruvian;japanese;nikkei", "diet:vegetarian": "yes", "indoor_seating": "yes", "level": "0", "name": "Nauta", "opening_hours": "We-Sa 19:30-00:00 off", "outdoor_seating": "yes", "payment:cash": "yes", "payment:credit_cards": "yes", "payment:debit_cards": "yes", "smoking": "no", "website": "http://nautaberlin.com/", "wheelchair": "no"}}, {"type": "node", "id": 320217469, "lat": 52.5339909, "lon": 13.4048341, "tags": {"addr:city": "Berlin", "addr:country": "DE", "addr:housenumber": "50", "addr:postcode": "10119", "addr:street": "Kastanienallee", "addr:suburb": "Mitte", "amenity": "restaurant", "check_date": "2024-06-10", "contact:phone": "+49 30 44010494", "contact:website": "http://www.aapka.de/", "cuisine": "indian", "diet:halal": "no", "diet:kosher": "no", "diet:vegan": "yes", "diet:vegetarian": "yes", "indoor_seating": "yes", "level": "0", "name": "Aapka", "opening_hours": "Mo-Fr 16:00-23:00; Sa,Su 12:00-23:00", "outdoor_seating": "yes", "smoking": "outside", "wheelchair": "no"}}, {"type": "node", "id": 320217866, "lat": 52.534462, "lon": 13.404733, "tags": {"addr:city": "Berlin", "addr:country": "DE", "addr:housenumber": "39", "addr:postcode": "10119", "addr:street": "Zionskirchstra\u00dfe", "addr:suburb": "Mitte", "amenity": "bar", "check_date": "2024-06-08", "indoor_seating": "yes", "level": "0", "name": "macke prinz", "opening_hours": "Mo-Su 13:00-03:00", "outdoor_seating": "yes", "smoking": "yes", "wheelchair": "yes"}}, {"type": "node", "id": 320943664, "lat": 52.5218792, "lon": 13.4224286, "tags": {"access": "yes", "leisure": "playground"}}, {"type": "node", "id": 320943667, "lat": 52.521899, "lon": 13.4207517, "tags": {"access": "yes", "leisure": "playground"}}, {"type": "node", "id": 320950011, "lat": 52.5209748, "lon": 13.4268684}, {"type": "node", "id": 320952198, "lat": 52.5208996, "lon": 13.4279211, "tags": {"access": "yes", "leisure": "playground", "wheelchair": "no"}}, {"type": "node", "id": 321527319, "lat": 52.5342862, "lon": 13.4050916, "tags": {"addr:housenumber": "49", "addr:postcode": "10119", "addr:street": "Kastanienallee", "amenity": "restaurant", "check_date": "2025-06-30", "check_date:smoking": "2025-06-30", "cuisine": "indian;mexican;italian", "diet:vegan": "yes", "diet:vegetarian": "yes", "level": "0", "name": "W Der Imbiss", "opening_hours": "Su-Th 12:00-22:00; Fr,Sa 12:00-23:00", "smoking": "no", "website": "https://w-derimbiss.de/", "wheelchair": "no"}}, {"type": "node", "id": 322151533, "lat": 52.5274856, "lon": 13.3978184, "tags": {"amenity": "pharmacy", "check_date": "2025-01-19", "check_date:opening_hours": "2025-01-19", "dispensing": "yes", "email": "wolfgang.weidlich@aponet.de", "fax": "+4930 2859831 4", "healthcare": "pharmacy", "level": "0", "name": "Apotheke am Koppenplatz", "opening_hours": "Mo-Fr 08:30-19:00; Sa 09:00-14:00", "phone": "+4930 2859831 3", "source": "survey", "website": "http://www.wolfgang-weidlich.de/", "wheelchair": "yes"}}, {"type": "node", "id": 322178039, "lat": 52.5263978, "lon": 13.398569, "tags": {"addr:city": "Berlin", "addr:country": "DE", "addr:housenumber": "37", "addr:postcode": "10115", "addr:street": "Gro\u00dfe Hamburger Stra\u00dfe", "addr:suburb": "Mitte", "air_conditioning": "no", "amenity": "pub", "check_date": "2025-05-11", "contact:email": "info@sophieneck-berlin.de", "contact:facebook": "Sophieneck", "contact:fax": "+49 30 28599860", "contact:phone": "+49 30 2834065", "contact:website": "https://www.sophieneck-berlin.de", "cuisine": "regional", "diet:vegan": "no", "diet:vegetarian": "yes", "food": "yes", "indoor_seating": "yes", "name": "Sophieneck", "opening_hours": "PH,Mo-Su 12:00-02:00", "operator": "DUWENO Gastst\u00e4tten- und Hotelbetriebs GmbH", "outdoor_seating": "yes", "payment:credit_cards": "yes", "payment:debit_cards": "yes", "smoking": "outside", "source": "survey", "wheelchair": "limited"}}, {"type": "node", "id": 322490383, "lat": 52.5189866, "lon": 13.4155159, "tags": {"addr:city": "Berlin", "addr:city:fa": "\u0628\u0631\u0644\u06cc\u0646", "addr:country": "DE", "addr:housenumber": "20", "addr:postcode": "10179", "addr:street": "Grunerstra\u00dfe", "addr:suburb": "Mitte", "amenity": "pharmacy", "contact:phone": "+49 30 27581640", "contact:website": "http://www.alexa-apotheke.de", "dispensing": "yes", "healthcare": "pharmacy", "level": "0", "name": "Alexa Apotheke", "opening_hours": "Mo-Fr 09:00-19:00; Sa 10:00-19:00", "wheelchair": "yes"}}, {"type": "node", "id": 323232341, "lat": 52.5190122, "lon": 13.4220356}, {"type": "node", "id": 323232342, "lat": 52.5189615, "lon": 13.4222048}, {"type": "node", "id": 323232344, "lat": 52.5187173, "lon": 13.4217943}, {"type": "node", "id": 324576608, "lat": 52.5202519, "lon": 13.4175278}, {"type": "node", "id": 326807333, "lat": 52.5195057, "lon": 13.4234314, "tags": {"addr:city": "Berlin", "addr:country": "DE", "addr:housenumber": "36", "addr:postcode": "10178", "addr:street": "Karl-Marx-Allee", "addr:suburb": "Mitte", "amenity": "bar", "contact:website": "https://www.cafemoskau.com/salon-babette", "name": "Salon Babette", "opening_hours": "Tu-Th 18:00-24:00; Fr,Sa 17:00-01:00", "outdoor_seating": "yes"}}, {"type": "node", "id": 326807346, "lat": 52.5173262, "lon": 13.4257836}, {"type": "node", "id": 326807347, "lat": 52.5156849, "lon": 13.4246178, "tags": {"access": "private", "leisure": "playground", "wheelchair": "yes"}}, {"type": "node", "id": 329564458, "lat": 52.534363, "lon": 13.403029, "tags": {"addr:city": "Berlin", "addr:country": "DE", "addr:housenumber": "28", "addr:postcode": "10119", "addr:street": "Zionskirchstra\u00dfe", "addr:suburb": "Mitte", "amenity": "restaurant", "contact:website": "http://www.labigoudene.de", "cuisine": "crepe;french", "diet:non-vegetarian": "yes", "diet:vegan": "yes", "diet:vegetarian": "yes", "indoor_seating": "yes", "name": "La Bigoud\u00e8ne", "opening_hours": "Mo-Sa 18:00-23:00; Su 12:00-23:00", "outdoor_seating": "yes", "payment:cards": "only", "phone": "+493024729110", "wheelchair": "no"}}, {"type": "node", "id": 329969446, "lat": 52.5186677, "lon": 13.4219598}, {"type": "node", "id": 329969468, "lat": 52.5175686, "lon": 13.4238976, "tags": {"amenity": "cafe", "check_date:opening_hours": "2025-06-25", "diet:vegan": "no", "diet:vegetarian": "only", "email": "info@lotos-vihara.de", "name": "Lotus Cafe", "opening_hours": "Mo-Fr 12:00-19:00; Su 15:00-19:00", "phone": "+49 30 27583212", "phone:mobile": "+49 172 3997978", "website": "https://www.lotos-vihara.de/"}}, {"type": "node", "id": 329969469, "lat": 52.5189336, "lon": 13.4219161, "tags": {"access": "yes", "addr:city": "Berlin", "addr:country": "DE", "addr:housenumber": "12", "addr:postcode": "10179", "addr:street": "Schillingstra\u00dfe", "addr:suburb": "Mitte"}}, {"type": "node", "id": 330160536, "lat": 52.5235718, "lon": 13.4068594, "tags": {"addr:city": "Berlin", "addr:housenumber": "40", "addr:postcode": "10178", "addr:street": "Dircksenstra\u00dfe", "amenity": "restaurant", "check_date": "2025-06-30", "check_date:smoking": "2025-06-30", "cuisine": "spanish", "diet:vegetarian": "yes", "indoor_seating": "yes", "name": "Atame", "opening_hours": "Mo-Fr 13:00-24:00; Sa 16:00-24:00; Su off", "outdoor_seating": "yes", "phone": "+49 30 98390591", "smoking": "no", "website": "http://atame-tapasbar.de", "wheelchair": "no"}}, {"type": "node", "id": 330257797, "lat": 52.5359066, "lon": 13.4050034, "tags": {"addr:city": "Berlin", "addr:country": "DE", "addr:housenumber": "5", "addr:postcode": "10435", "addr:street": "Griebenowstra\u00dfe", "addr:suburb": "Mitte", "amenity": "pub", "check_date": "2025-06-30", "check_date:smoking": "2025-06-30", "contact:facebook": "https://www.facebook.com/weinereiperlin/", "contact:website": "https://www.weinerei.com/#!/location-perlin", "cuisine": "spanish", "drink:wine": "served", "food": "yes", "indoor_seating": "yes", "internet_access": "no", "name": "Perlin", "opening_hours": "We-Su 18:00+", "outdoor_seating": "yes", "smoking": "no", "wheelchair": "yes"}}, {"type": "node", "id": 330259379, "lat": 52.534069, "lon": 13.404568, "tags": {"amenity": "restaurant", "check_date": "2025-06-30", "check_date:opening_hours": "2025-04-05", "check_date:smoking": "2025-06-30", "created_by": "Potlatch 0.10f", "cuisine": "asian", "level": "0", "name": "Hangi Sushi", "opening_hours": "Tu-Fr 12:00-15:00,17:00-22:00; Sa,Su,PH 17:00-22:00; Mo off", "smoking": "no", "wheelchair": "yes"}}, {"type": "node", "id": 330259891, "lat": 52.533631, "lon": 13.402655, "tags": {"addr:city": "Berlin", "addr:country": "DE", "addr:housenumber": "57", "addr:postcode": "10119", "addr:street": "Fehrbelliner Stra\u00dfe", "addr:suburb": "Mitte", "amenity": "pub", "check_date": "2024-06-10", "check_date:opening_hours": "2024-02-24", "contact:phone": "+49-30-4406983", "contact:website": "http://weinerei.com/forum/", "food": "yes", "indoor_seating": "yes", "level": "0", "name": "Weinerei Forum", "opening_hours": "Mo-Su 10:00-24:00", "outdoor_seating": "yes", "payment:mastercard": "yes", "payment:visa": "yes", "smoking": "separated", "toilets:wheelchair": "no", "wheelchair": "limited"}}, {"type": "node", "id": 330262371, "lat": 52.5336497, "lon": 13.4034671, "tags": {"addr:city": "Berlin", "addr:country": "DE", "addr:housenumber": "24", "addr:postcode": "10119", "addr:street": "Fehrbelliner Stra\u00dfe", "addr:suburb": "Mitte", "amenity": "restaurant", "check_date": "2025-07-19", "check_date:opening_hours": "2025-07-19", "contact:phone": "+493044032771", "cuisine": "italian", "diet:vegan": "yes", "diet:vegetarian": "yes", "indoor_seating": "yes", "name": "La Focacceria", "opening_hours": "Mo-Su 11:00-19:00", "opening_hours:signed": "no", "outdoor_seating": "yes", "wheelchair": "limited"}}, {"type": "node", "id": 330262523, "lat": 52.533767, "lon": 13.405399, "tags": {"addr:city": "Berlin", "addr:country": "DE", "addr:housenumber": "44", "addr:postcode": "10119", "addr:street": "Zionskirchstra\u00dfe", "addr:suburb": "Mitte", "amenity": "restaurant", "cuisine": "thai", "diet:vegan": "yes", "diet:vegetarian": "yes", "indoor_seating": "yes", "name": "Thai Sushi & More", "opening_hours": "Mo-Fr 12:00-22:00; Su,PH 13:00-22:00; Sa off", "outdoor_seating": "yes", "smoking": "no", "wheelchair": "no"}}, {"type": "node", "id": 330264334, "lat": 52.5295304, "lon": 13.4017825, "tags": {"addr:city": "Berlin", "addr:country": "DE", "addr:housenumber": "72", "addr:postcode": "10119", "addr:street": "Rosenthaler Stra\u00dfe", "addr:suburb": "Mitte", "air_conditioning": "no", "amenity": "cafe", "check_date": "2024-06-10", "contact:email": "info@sanktoberholz.de", "contact:facebook": "https://www.facebook.com/sanktoberholz", "contact:foursquare": "https://foursquare.com/v/4adcf782f964a520016321e3", "contact:instagram": "https://www.instagram.com/oberholz/", "contact:phone": "+49 30 24085586", "contact:twitter": "https://twitter.com/oberholz", "contact:website": "https://sanktoberholz.de/standorte/rosenthaler/", "cuisine": "coffee_shop", "diet:vegetarian": "yes", "door": "hinged", "entrance": "yes", "indoor_seating": "yes", "internet_access": "wlan", "level": "0", "name": "St. Oberholz", "office": "coworking", "opening_hours": "Mo-Th 08:00-24:00, Fr 08:00-03:00, Sa 09:00-03:00, Su 09:00-24:00", "operator": "Louca & Oberholz GbR", "outdoor_seating": "yes", "payment:credit_cards": "yes", "payment:debit_cards": "yes", "smoking": "outside", "start_date": "2005", "takeaway": "yes", "toilets:wheelchair": "no", "wheelchair": "limited", "wikidata": "Q24229388"}}, {"type": "node", "id": 332554285, "lat": 52.5212101, "lon": 13.3853311, "tags": {"addr:city": "Berlin", "addr:country": "DE", "addr:housenumber": "8", "addr:postcode": "10117", "addr:street": "Schiffbauerdamm", "addr:suburb": "Mitte", "alt_name": "St\u00e4V Berlin-Mitte", "amenity": "restaurant", "contact:email": "info@staev.de", "contact:fax": "+49 30 28598735", "contact:phone": "+49 30 2823965", "contact:website": "https://www.staev.de", "cuisine": "german", "diet:vegetarian": "yes", "indoor_seating": "yes", "name": "St\u00e4ndige Vertretung", "opening_hours": "10:30-01:00", "operator": "St\u00e4ndige Vertretung Gastronomie GmbH", "outdoor_seating": "yes", "short_name": "St\u00e4V", "smoking": "no", "start_date": "1997", "toilets:wheelchair": "no", "wheelchair": "limited", "wikidata": "Q2360197", "wikimedia_commons": "Category:Restaurant St\u00e4ndige Vertretung Berlin", "wikipedia": "de:St\u00e4ndige Vertretung (Gastronomiebetrieb)"}}, {"type": "node", "id": 332554286, "lat": 52.5215872, "lon": 13.3850713, "tags": {"addr:city": "Berlin", "addr:country": "DE", "addr:housenumber": "14b", "addr:postcode": "10117", "addr:street": "Albrechtstra\u00dfe", "addr:suburb": "Mitte", "amenity": "restaurant", "check_date": "2025-07-02", "check_date:smoking": "2025-07-02", "indoor_seating": "yes", "name": "Adonia", "smoking": "no", "wheelchair": "no"}}, {"type": "node", "id": 332554290, "lat": 52.5223526, "lon": 13.379881, "tags": {"addr:city": "Berlin", "addr:country": "DE", "addr:housenumber": "41", "addr:postcode": "10117", "addr:street": "Luisenstra\u00dfe", "addr:suburb": "Mitte", "amenity": "restaurant", "contact:phone": "+493027572164", "cuisine": "spanish", "diet:vegetarian": "yes", "indoor_seating": "yes", "name": "Volver", "opening_hours": "Mo-Fr 18:00-23:00; Sa 18:00-24:00", "outdoor_seating": "sidewalk", "payment:credit_cards": "yes", "payment:debit_cards": "yes", "website": "http://www.volver-tapas.de/", "wheelchair": "no"}}, {"type": "node", "id": 332554291, "lat": 52.5215879, "lon": 13.38609, "tags": {"addr:city": "Berlin", "addr:country": "DE", "addr:housenumber": "6", "addr:postcode": "10117", "addr:street": "Schiffbauerdamm", "addr:suburb": "Mitte", "amenity": "bar", "contact:phone": "+49 30 27582305", "indoor_seating": "yes", "name": "Vincent Piano Bar", "outdoor_seating": "yes", "smoking": "no", "website": "http://vincent-bar.de/hauptseite/", "wheelchair": "no"}}, {"type": "node", "id": 332625321, "lat": 52.5210049, "lon": 13.3850412, "tags": {"addr:city": "Berlin", "addr:country": "DE", "addr:housenumber": "12", "addr:postcode": "10117", "addr:street": "Albrechtstra\u00dfe", "addr:suburb": "Mitte", "amenity": "restaurant", "contact:phone": "+49 30 27594623", "cuisine": "italian", "diet:vegetarian": "yes", "indoor_seating": "yes", "name": "Vaporetto", "opening_hours": "Mo-Su 12:00+", "outdoor_seating": "yes", "smoking": "no", "toilets:wheelchair": "yes", "website": "https://www.vaporetto-berlin.de", "wheelchair": "yes", "wheelchair:description": "there are ground floor tables and outside tables. wheelchair accessible toilet."}}, {"type": "node", "id": 332625324, "lat": 52.5223201, "lon": 13.3838875, "tags": {"addr:city": "Berlin", "addr:country": "DE", "addr:housenumber": "18", "addr:postcode": "10117", "addr:street": "Marienstra\u00dfe", "addr:suburb": "Mitte", "amenity": "pub", "contact:phone": "+49 30 27596909", "contact:website": "http://www.boesebubenbar.de", "cuisine": "regional", "food": "yes", "indoor_seating": "yes", "name": "B\u00f6se Buben Bar", "opening_hours": "10:00+", "outdoor_seating": "yes", "smoking": "outside", "toilets:wheelchair": "no", "wheelchair": "yes"}}, {"type": "node", "id": 332625327, "lat": 52.5206164, "lon": 13.384282, "tags": {"addr:city": "Berlin", "addr:country": "DE", "addr:floor": "0", "addr:housenumber": "12", "addr:postcode": "10117", "addr:street": "Schiffbauerdamm", "addr:suburb": "Mitte", "amenity": "cafe", "check_date": "2025-07-02", "check_date:smoking": "2025-07-02", "contact:instagram": "zimtundzucker.berlin", "contact:phone": "+49 30 81010858", "level": "0", "name": "Zimt & Zucker", "opening_hours": "Mo-Su 08:00-17:00", "outdoor_seating": "yes", "payment:cash": "yes", "payment:visa": "yes", "payment:visa_contactless": "yes", "reservation": "yes", "smoking": "no", "toilets:wheelchair": "yes", "website": "https://zimtundzucker.com", "website:menu": "https://zimtundzucker.com/speisekarten/Zimt_und_Zucker_Schiffbauer_Sommer_2024.pdf", "wheelchair": "limited"}}, {"type": "node", "id": 332625330, "lat": 52.5212138, "lon": 13.3849693, "tags": {"addr:housenumber": "12", "addr:postcode": "10117", "addr:street": "Albrechtstra\u00dfe", "amenity": "restaurant", "capacity": "130", "cuisine": "indian", "diet:vegetarian": "yes", "indoor_seating": "yes", "internet_access": "wlan", "name": "Anand", "opening_hours": "Mo-Su 12:00-22:30", "outdoor_seating": "yes", "phone": "+49 30 40054759", "smoking": "no", "toilets:wheelchair": "yes", "website": "https://restaurant-anand.de/", "wheelchair": "yes"}}, {"type": "node", "id": 332733319, "lat": 52.5228146, "lon": 13.3824135, "tags": {"addr:city": "Berlin", "addr:country": "DE", "addr:housenumber": "27 D", "addr:postcode": "10117", "addr:street": "Reinhardtstra\u00dfe", "addr:suburb": "Mitte", "amenity": "restaurant", "cuisine": "italian", "indoor_seating": "yes", "name": "Cinque", "opening_hours": "Mo-Sa 11:30-01:00, Su 16:00+", "outdoor_seating": "yes", "phone": "+49 30 28096224", "smoking": "no", "toilets:wheelchair": "yes", "website": "https://www.ristorante-cinque.de/", "wheelchair": "yes"}}, {"type": "node", "id": 333136478, "lat": 52.5230929, "lon": 13.3837544, "tags": {"addr:city": "Berlin", "addr:country": "DE", "addr:housenumber": "23", "addr:postcode": "10117", "addr:street": "Reinhardtstra\u00dfe", "addr:suburb": "Mitte", "amenity": "cafe", "check_date": "2025-03-26", "contact:phone": "+49 30 27576701", "cuisine": "german", "indoor_seating": "yes", "level": "0", "name": "Caf\u00e9 Albrecht", "opening_hours": "Mo-Fr 07:00-18:00; Sa 08:00-17:00; Su 08:00-16:00", "outdoor_seating": "yes", "smoking": "no", "surveillance": "indoor", "website": "https://www.cafe-albrecht.com/", "wheelchair": "yes"}}, {"type": "node", "id": 333136484, "lat": 52.5236266, "lon": 13.3853444, "tags": {"addr:city": "Berlin", "addr:country": "DE", "addr:housenumber": "14", "addr:postcode": "10117", "addr:street": "Reinhardtstra\u00dfe", "addr:suburb": "Mitte", "amenity": "restaurant", "check_date:opening_hours": "2023-10-25", "name": "Dehlers", "opening_hours:signed": "no", "smoking": "no"}}, {"type": "node", "id": 333136582, "lat": 52.5238004, "lon": 13.3865223, "tags": {"amenity": "restaurant", "check_date": "2025-07-02", "check_date:smoking": "2025-07-02", "cuisine": "thai;vietnamese", "indoor_seating": "yes", "level": "0", "name": "Van-Long", "opening_hours": "Mo-Fr 11:30-21:00; Sa 17:00-22:00; Su off", "outdoor_seating": "yes", "smoking": "no", "website": "http://www.van-long.de/", "wheelchair": "no"}}, {"type": "node", "id": 333136584, "lat": 52.5238713, "lon": 13.3868725, "tags": {"amenity": "restaurant", "check_date": "2025-06-30", "check_date:smoking": "2025-06-30", "cuisine": "japanese", "diet:vegan": "yes", "diet:vegetarian": "yes", "indoor_seating": "yes", "name": "Akito", "opening_hours": "Mo-Fr 10:30-22:15; Sa 13:00-22:15; Su 13:00-21:00 \"nur Express\"; PH off", "outdoor_seating": "yes", "smoking": "no", "wheelchair": "no"}}, {"type": "node", "id": 333136586, "lat": 52.5250993, "lon": 13.3871462, "tags": {"addr:city": "Berlin", "addr:country": "DE", "addr:housenumber": "129", "addr:postcode": "10117", "addr:street": "Friedrichstra\u00dfe", "addr:suburb": "Mitte", "amenity": "restaurant", "contact:phone": "+49 30 28878785", "contact:website": "https://www.roma-ristorante.de/", "cuisine": "italian", "diet:vegetarian": "yes", "indoor_seating": "yes", "name": "Roma", "opening_hours": "Mo-Su 11:30-00:00", "opening_hours:signed": "no", "outdoor_seating": "yes", "payment:credit_cards": "yes", "payment:debit_cards": "yes", "smoking": "no", "toilets": "yes", "toilets:wheelchair": "limited", "wheelchair": "limited"}}, {"type": "node", "id": 333136721, "lat": 52.5260119, "lon": 13.3880152, "tags": {"addr:city": "Berlin", "addr:country": "DE", "addr:housenumber": "51", "addr:postcode": "10117", "addr:street": "Oranienburger Stra\u00dfe", "addr:suburb": "Mitte", "amenity": "cafe", "check_date": "2025-06-30", "check_date:smoking": "2025-06-30", "contact:email": "info@espresso-ambulanz.de", "contact:mobile": "+49 172 3145602", "contact:phone": "+49 30 97893808", "contact:website": "http://www.espresso-ambulanz.de/", "cuisine": "coffee_shop", "diet:vegetarian": "yes", "indoor_seating": "yes", "internet_access": "wlan", "name": "Espresso Ambulanz", "opening_hours": "08:00-20:00", "outdoor_seating": "yes", "smoking": "no", "wheelchair": "no"}}, {"type": "node", "id": 333136722, "lat": 52.5261784, "lon": 13.3886693, "tags": {"addr:city": "Berlin", "addr:country": "DE", "addr:housenumber": "50", "addr:postcode": "10117", "addr:street": "Oranienburger Stra\u00dfe", "addr:suburb": "Mitte", "air_conditioning": "no", "amenity": "restaurant", "brand": "Sausalitos", "brand:wikidata": "Q2227783", "brand:wikipedia": "de:Sausalitos", "contact:phone": "+49 30 403665200", "contact:website": "https://www.sausalitos.de/nc/mein-sausalitos/berlin-oranienburger-strasse/", "cuisine": "mexican", "diet:vegan": "yes", "diet:vegetarian": "yes", "indoor_seating": "yes", "name": "Sausalitos", "opening_hours": "Mo-Th 12:00-24:00, Fr 12:00-02:00, Sa 17:00-02:00, Su 17:00-24:00", "outdoor_seating": "yes", "smoking": "outside", "wheelchair": "limited", "wheelchair:description": "Toiletten im Untergeschoss nur \u00fcber Treppe zu erreichen"}}, {"type": "node", "id": 333136723, "lat": 52.5231491, "lon": 13.3884968, "tags": {"addr:city": "Berlin", "addr:country": "DE", "addr:housenumber": "106c", "addr:postcode": "10117", "addr:street": "Friedrichstra\u00dfe", "addr:suburb": "Mitte", "amenity": "restaurant", "check_date:opening_hours": "2024-03-11", "cuisine": "indian", "diet:vegan": "yes", "diet:vegetarian": "yes", "indoor_seating": "yes", "name": "Bombay", "opening_hours:signed": "no", "outdoor_seating": "yes", "payment:credit_cards": "yes", "payment:debit_cards": "yes", "phone": "+49 30 28484953", "smoking": "no", "toilets:wheelchair": "yes", "website": "https://www.bombay-berlin.de/", "wheelchair": "yes", "wheelchair:description": "ebenerdig, ger\u00e4umiges WC aber ohne Griffe u.\u00e4."}}, {"type": "node", "id": 333136725, "lat": 52.5197964, "lon": 13.3892871, "tags": {"addr:housenumber": "96", "addr:street": "Friedrichstra\u00dfe", "amenity": "fast_food", "brand": "dean&david", "brand:wikidata": "Q66132404", "check_date": "2025-02-11", "check_date:diet:vegan": "2025-02-11", "cuisine": "salad;sandwich", "delivery": "yes", "diet:vegan": "yes", "diet:vegetarian": "yes", "drive_through": "no", "indoor_seating": "yes", "level": "0", "name": "dean&david", "opening_hours": "Mo-Fr 10:00-21:00; Sa-Su 11:00-20:00", "operator": "dean&david B Friedrichstra\u00dfe GmbH, Bernhard G\u00f6tz", "organic": "yes", "outdoor_seating": "yes", "smoking": "outside", "takeaway": "yes", "toilets": "yes", "toilets:wheelchair": "yes", "wheelchair": "limited"}}, {"type": "node", "id": 333160358, "lat": 52.5208138, "lon": 13.3884622, "tags": {"addr:city": "Berlin", "addr:country": "DE", "addr:housenumber": "101", "addr:postcode": "10117", "addr:street": "Friedrichstra\u00dfe", "addr:suburb": "Mitte", "amenity": "restaurant", "brand": "Peter Pane", "brand:wikidata": "Q66084419", "brand:wikipedia": "nl:Peter Pane", "check_date": "2023-06-15", "contact:phone": "+49 30 20679063", "contact:website": "https://peterpane.de/standorte/berlin/friedrichstrasse/", "cuisine": "burger", "diet:vegan": "yes", "diet:vegetarian": "yes", "indoor_seating": "yes", "name": "Peter Pane", "opening_hours": "11:00+", "outdoor_seating": "yes", "smoking": "no", "toilets:wheelchair": "no", "website:menu": "https://peterpane.de/speisekarte", "wheelchair": "yes"}}, {"type": "node", "id": 333730237, "lat": 52.5338484, "lon": 13.4035776, "tags": {"addr:city": "Berlin", "addr:country": "DE", "addr:housenumber": "34", "addr:postcode": "10119", "addr:street": "Zionskirchstra\u00dfe", "addr:suburb": "Mitte", "amenity": "pub", "check_date": "2024-06-08", "cuisine": "international", "indoor_seating": "yes", "level": "0", "name": "Ick koof mir Dave Lombardo, wenn ick reich bin", "outdoor_seating": "yes", "payment:cash": "yes", "payment:credit_cards": "yes", "payment:debit_cards": "yes", "smoking": "yes", "url": "http://www.lombardo-bar.de/", "wheelchair": "no"}}, {"type": "node", "id": 333733050, "lat": 52.5329814, "lon": 13.3999802, "tags": {"addr:city": "Berlin", "addr:country": "DE", "addr:housenumber": "26", "addr:postcode": "10119", "addr:street": "Veteranenstra\u00dfe", "addr:suburb": "Mitte", "amenity": "pub", "check_date": "2024-06-10", "contact:email": "info@fcmagnetbar.de", "indoor_seating": "yes", "level": "0", "name": "FC Magnet Bar", "operator": "Andreas S\u00fcrken", "outdoor_seating": "yes", "payment:cash": "yes", "payment:credit_cards": "yes", "payment:debit_cards": "yes", "smoking": "separated", "url": "http://www.fcmagnetbar.de/", "wheelchair": "no"}}, {"type": "node", "id": 334638166, "lat": 52.5223826, "lon": 13.384463, "tags": {"addr:city": "Berlin", "addr:country": "DE", "addr:housenumber": "19", "addr:postcode": "10117", "addr:street": "Albrechtstra\u00dfe", "addr:suburb": "Mitte", "amenity": "cafe", "contact:email": "Monsieur.Toche@gmx.de", "contact:phone": "+493028879450", "cuisine": "german", "food": "yes", "indoor_seating": "yes", "name": "Monsieur Toche", "opening_hours": "7:30-18:00", "outdoor_seating": "no", "smoking": "no", "wheelchair": "no"}}, {"type": "node", "id": 335594170, "lat": 52.5331919, "lon": 13.4008848, "tags": {"addr:city": "Berlin", "addr:country": "DE", "addr:housenumber": "22", "addr:postcode": "10119", "addr:street": "Veteranenstra\u00dfe", "addr:suburb": "Mitte", "amenity": "cafe", "contact:email": "kontakt@bar-feuerstein.de", "contact:phone": "+49-30-4482667", "name": "Feuerstein", "url": "http://www.bar-feuerstein.de/", "wheelchair": "yes"}}, {"type": "node", "id": 336139006, "lat": 52.5312177, "lon": 13.4022416, "tags": {"addr:city": "Berlin", "addr:country": "DE", "addr:housenumber": "20", "addr:postcode": "10119", "addr:street": "Weinbergsweg", "addr:suburb": "Mitte", "air_conditioning": "no", "amenity": "cafe", "changing_table": "no", "check_date": "2024-06-10", "cuisine": "breakfast;cake;french", "description": "Sp\u00e9cialit\u00e9s fran\u00e7aises", "diet:vegan": "yes", "diet:vegetarian": "yes", "email": "fleury@berlin.de", "indoor_seating": "yes", "internet_access": "wlan", "level": "0", "name": "Caf\u00e9 Fleury", "opening_hours": "Mo-Su 09:00-19:00", "outdoor_seating": "terrace", "payment:apple_pay": "yes", "payment:cards": "yes", "payment:cash": "yes", "payment:contactless": "yes", "payment:credit_cards": "yes", "payment:debit_cards": "yes", "payment:google_pay": "yes", "phone": "+49 30 44034144", "reservation": "yes", "smoking": "outside", "toilets": "yes", "website": "https://cafe-fleury.eatbu.com/?lang=en", "wheelchair": "no"}}, {"type": "node", "id": 336139117, "lat": 52.5307267, "lon": 13.4023299, "tags": {"addr:city": "Berlin", "addr:country": "DE", "addr:housenumber": "5", "addr:postcode": "10119", "addr:street": "Weinbergsweg", "addr:suburb": "Mitte", "amenity": "fast_food", "check_date:opening_hours": "2025-04-05", "indoor_seating": "yes", "level": "0", "name": "Yangguofu Malatang", "opening_hours:signed": "no", "outdoor_seating": "yes"}}, {"type": "node", "id": 336139347, "lat": 52.529432, "lon": 13.401194, "tags": {"addr:city": "Berlin", "addr:housenumber": "1", "addr:postcode": "10119", "addr:street": "Rosenthaler Stra\u00dfe", "amenity": "fast_food", "cuisine": "pizza", "level": "0", "name": "Fergie", "opening_hours": "Mo off; Tu-Su 12:00-22:00", "website": "https://fergydeep.de/", "wheelchair": "yes"}}, {"type": "node", "id": 336140140, "lat": 52.5325107, "lon": 13.4061676, "tags": {"addr:city": "Berlin", "addr:country": "DE", "addr:housenumber": "76", "addr:postcode": "10119", "addr:street": "Choriner Stra\u00dfe", "addr:suburb": "Mitte", "amenity": "pub", "check_date": "2024-06-11", "contact:phone": "+49304496939", "contact:website": "http://www.schwarzepumpe-berlin.de/", "indoor_seating": "yes", "level": "0", "name": "Schwarze Pumpe", "opening_hours": "Mo-Fr 11:00-01:00, Sa,Su 17:00-01:00", "outdoor_seating": "yes", "payment:cash": "yes", "payment:credit_cards": "yes", "payment:debit_cards": "yes", "ref:vatin": "DE3034531567", "smoking": "no", "toilets:wheelchair": "no", "wheelchair": "no"}}, {"type": "node", "id": 336384872, "lat": 52.5278753, "lon": 13.394901, "tags": {"addr:housenumber": "160", "addr:postcode": "10115", "addr:street": "Linienstra\u00dfe", "amenity": "restaurant", "check_date": "2025-07-02", "check_date:smoking": "2025-07-02", "cuisine": "german", "indoor_seating": "yes", "level": "0", "name": "Lokal", "opening_hours": "Mo-Su 17:00-24:00", "outdoor_seating": "yes", "payment:cash": "yes", "payment:credit_cards": "yes", "payment:debit_cards": "yes", "phone": "+49 30 28449500", "smoking": "no", "website": "http://lokal-berlin.blogspot.com", "wheelchair": "no"}}, {"type": "node", "id": 336384877, "lat": 52.5274962, "lon": 13.3926644, "tags": {"addr:city": "Berlin", "addr:country": "DE", "addr:housenumber": "113", "addr:postcode": "10115", "addr:street": "Linienstra\u00dfe", "addr:suburb": "Mitte", "air_conditioning": "no", "amenity": "restaurant", "check_date": "2024-04-12", "contact:phone": "+49 30 28095390", "diet:vegan": "no", "diet:vegetarian": "yes", "indoor_seating": "yes", "level": "0", "name": "B\u00f6tzow Privat", "opening_hours": "Mo-Su 17:00-24:00", "outdoor_seating": "yes", "payment:cards": "no", "payment:cash": "yes", "payment:credit_cards": "no", "payment:debit_cards": "no", "payment:paypal": "yes", "smoking": "outside", "website": "https://www.boetzow-privat.de", "wheelchair": "no"}}, {"type": "node", "id": 336384880, "lat": 52.5213573, "lon": 13.3856815, "tags": {"addr:city": "Berlin", "addr:country": "DE", "addr:housenumber": "8", "addr:postcode": "10117", "addr:street": "Schiffbauerdamm", "addr:suburb": "Mitte", "amenity": "pub", "contact:phone": "+49 30 30872293", "email": "info@die-berliner-republik.de", "fax": "+49 30 30872295", "name": "Die Berliner Republik", "smoking": "no", "website": "https://www.die-berliner-republik.de/"}}, {"type": "node", "id": 336384888, "lat": 52.521472, "lon": 13.385871, "tags": {"addr:city": "Berlin", "addr:country": "DE", "addr:housenumber": "6-7", "addr:postcode": "10117", "addr:street": "Schiffbauerdamm", "addr:suburb": "Mitte", "amenity": "restaurant", "cuisine": "german;steak_house", "diet:vegan": "no", "diet:vegetarian": "yes", "email": "reservierung@brechts.de", "indoor_seating": "yes", "name": "Brechts", "opening_hours": "Mo-Su 12:00-00:00", "outdoor_seating": "yes", "phone": "+49 30 27572037", "smoking": "no", "website": "https://www.brechts.de", "wheelchair": "no"}}, {"type": "node", "id": 336384894, "lat": 52.521721, "lon": 13.3863157, "tags": {"addr:city": "Berlin", "addr:country": "DE", "addr:housenumber": "5", "addr:postcode": "10117", "addr:street": "Schiffbauerdamm", "addr:suburb": "Mitte", "amenity": "restaurant", "check_date": "2025-07-02", "check_date:smoking": "2025-07-02", "contact:phone": "+493028599046", "cuisine": "french", "indoor_seating": "yes", "name": "Ganymed", "opening_hours": "Mo-Su 10:00-24:00", "outdoor_seating": "yes", "smoking": "no", "website": "https://www.ganymed-brasserie.de/"}}, {"type": "node", "id": 337503862, "lat": 52.5161429, "lon": 13.3899146, "tags": {"addr:housenumber": "8", "addr:postcode": "10117", "addr:street": "Rosmarinstra\u00dfe", "amenity": "restaurant", "cuisine": "japanese;vietnamese", "name": "Bonjour Vietnam", "opening_hours": "Mo-Fr 11:30-22:00; Su 11:30-22:00", "phone": "+49 30 31165537", "smoking": "no", "website": "https://www.bonjourvietnam.berlin/", "wheelchair": "no"}}, {"type": "node", "id": 339303501, "lat": 52.5303625, "lon": 13.3948625}, {"type": "node", "id": 339303502, "lat": 52.5297581, "lon": 13.3951812}, {"type": "node", "id": 339303503, "lat": 52.5294431, "lon": 13.3940522}, {"type": "node", "id": 339816979, "lat": 52.5291046, "lon": 13.3954604, "tags": {"addr:city": "Berlin", "addr:country": "DE", "addr:housenumber": "167", "addr:postcode": "10115", "addr:street": "Torstra\u00dfe", "addr:suburb": "Mitte", "amenity": "restaurant", "contact:phone": "+49 30 67302052", "cuisine": "french", "indoor_seating": "yes", "name": "3 minutes sur mer", "opening_hours": "We-Sa 18:00-24:00", "operator": "3minutes sur mer", "outdoor_seating": "yes", "ref:vatin": "DE34/252/00374", "smoking": "no", "toilets:wheelchair": "no", "website": "https://www.3minutessurmer.de/", "website:menu": "https://3minutessurmer.de/en/news", "wheelchair": "no"}}, {"type": "node", "id": 339819416, "lat": 52.5349278, "lon": 13.4057256, "tags": {"addr:city": "Berlin", "addr:country": "DE", "addr:housenumber": "43", "addr:postcode": "10119", "addr:street": "Kastanienallee", "addr:suburb": "Mitte", "amenity": "cafe", "check_date": "2025-06-30", "check_date:smoking": "2025-06-30", "contact:phone": "+493031170965", "contact:website": "http://napoljonska.de", "cuisine": "ice_cream", "indoor_seating": "yes", "level": "0", "name": "Napoljonska", "opening_hours": "Mo-Fr 08:00-18:00;Sa-Su 09:00-19:00;PH 09:00-19:00", "outdoor_seating": "yes", "smoking": "no", "wheelchair": "no"}}, {"type": "node", "id": 343178781, "lat": 52.5364424, "lon": 13.3660395}, {"type": "node", "id": 347278881, "lat": 52.5331417, "lon": 13.4018075, "tags": {"addr:city": "Berlin", "addr:country": "DE", "addr:housenumber": "11", "addr:postcode": "10119", "addr:street": "Veteranenstra\u00dfe", "addr:suburb": "Mitte", "amenity": "cafe", "contact:phone": "+493081618779", "indoor_seating": "yes", "name": "bei Maria", "opening_hours": "Mo-Su 08:00-18:00", "outdoor_seating": "yes", "phone": "+49 30 33851541", "wheelchair": "no"}}, {"type": "node", "id": 348000444, "lat": 52.5319807, "lon": 13.3970838, "tags": {"addr:city": "Berlin", "addr:housenumber": "158", "addr:postcode": "10115", "addr:street": "Invalidenstra\u00dfe", "brand": "Rewe", "brand:wikidata": "Q16968817", "brand:wikipedia": "de:Rewe", "check_date": "2024-06-16", "check_date:opening_hours": "2022-06-10", "level": "0", "name": "REWE", "opening_hours": "Mo-Sa 07:00-23:00", "payment:cash": "yes", "payment:credit_cards": "yes", "payment:debit_cards": "yes", "phone": "+49 30 28390336", "shop": "supermarket", "toilets:wheelchair": "yes", "website": "https://www.rewe.de/marktseite/rewe-markt-berlin-invalidenstra%C3%9Fe-158/", "wheelchair": "yes"}}, {"type": "node", "id": 349135038, "lat": 52.5345837, "lon": 13.370224}, {"type": "node", "id": 349135043, "lat": 52.5352877, "lon": 13.3694144}, {"type": "node", "id": 349135070, "lat": 52.5341939, "lon": 13.3706723}, {"type": "node", "id": 349135071, "lat": 52.5343383, "lon": 13.3705062}, {"type": "node", "id": 349148043, "lat": 52.5362657, "lon": 13.3659273}, {"type": "node", "id": 349148049, "lat": 52.5339462, "lon": 13.3690468}, {"type": "node", "id": 349148051, "lat": 52.5291387, "lon": 13.3727756}, {"type": "node", "id": 349148053, "lat": 52.5280105, "lon": 13.3739599}, {"type": "node", "id": 349148055, "lat": 52.5311355, "lon": 13.3708226}, {"type": "node", "id": 353642792, "lat": 52.517792, "lon": 13.3960761}, {"type": "node", "id": 353642793, "lat": 52.5183123, "lon": 13.395988}, {"type": "node", "id": 353642794, "lat": 52.5182468, "lon": 13.3949436}, {"type": "node", "id": 357455152, "lat": 52.5038274, "lon": 13.4244737, "tags": {"addr:city": "Berlin", "addr:country": "DE", "addr:housenumber": "2", "addr:postcode": "10997", "addr:street": "Mariannenplatz", "addr:suburb": "Kreuzberg", "entrance": "main", "wheelchair": "limited"}}, {"type": "node", "id": 367496774, "lat": 52.5100543, "lon": 13.3924345}, {"type": "node", "id": 367496783, "lat": 52.5103887, "lon": 13.3923843}, {"type": "node", "id": 371494531, "lat": 52.5364839, "lon": 13.3662726}, {"type": "node", "id": 371494570, "lat": 52.5366911, "lon": 13.3673683}, {"type": "node", "id": 371494574, "lat": 52.5368092, "lon": 13.3674785}, {"type": "node", "id": 371496175, "lat": 52.5362251, "lon": 13.3659621}, {"type": "node", "id": 376053800, "lat": 52.5329338, "lon": 13.3997845, "tags": {"addr:city": "Berlin", "addr:country": "DE", "addr:housenumber": "27", "addr:postcode": "10119", "addr:street": "Veteranenstra\u00dfe", "amenity": "fast_food", "contact:phone": "+49 30 54713420", "cuisine": "arab", "drive_through": "no", "indoor_seating": "yes", "internet_access": "no", "name": "Riha Bistro", "opening_hours": "Mo-Th 10:00-02:00, Fr-Su 10:00-04:00", "outdoor_seating": "yes", "smoking": "outside", "takeaway": "yes", "wheelchair": "no"}}, {"type": "node", "id": 378714397, "lat": 52.53209, "lon": 13.396302, "tags": {"addr:city": "Berlin", "addr:country": "DE", "addr:housenumber": "23", "addr:postcode": "10115", "addr:street": "Ackerstra\u00dfe", "addr:suburb": "Mitte", "amenity": "restaurant", "check_date": "2025-07-02", "check_date:diet:vegan": "2025-06-25", "check_date:diet:vegetarian": "2025-04-05", "check_date:smoking": "2025-07-02", "cuisine": "italian", "diet:vegan": "no", "diet:vegetarian": "yes", "indoor_seating": "yes", "level": "0", "name": "Pap\u00e0 Pane di Sorrento", "opening_hours": "12:00-24:00", "outdoor_seating": "sidewalk", "phone": "+49 30 28092701", "smoking": "no", "toilets:wheelchair": "yes", "website": "http://www.pap\u00e0pane.com", "wheelchair": "limited"}}, {"type": "node", "id": 378715785, "lat": 52.5315752, "lon": 13.3965969, "tags": {"addr:city": "Berlin", "addr:housenumber": "20", "addr:postcode": "10115", "addr:street": "Ackerstra\u00dfe", "amenity": "restaurant", "check_date": "2025-07-02", "check_date:smoking": "2025-07-02", "cuisine": "indian", "indoor_seating": "yes", "name": "Asman", "opening_hours": "12:00 - 24:00", "outdoor_seating": "yes", "phone": "+493027907167", "smoking": "no", "wheelchair": "no"}}, {"type": "node", "id": 380497987, "lat": 52.5092183, "lon": 13.3770918, "tags": {"amenity": "fast_food", "brand": "Pret A Manger", "brand:wikidata": "Q2109109", "cuisine": "sandwich", "diet:vegetarian": "yes", "indoor_seating": "yes", "name": "Pret A Manger", "opening_hours": "Mo-Fr 07:00-21:00; Sa,Su 07:00-21:30", "outdoor_seating": "yes", "short_name": "Pret", "smoking": "outside", "takeaway": "yes", "wheelchair": "yes"}}, {"type": "node", "id": 380498268, "lat": 52.5178945, "lon": 13.3882827, "tags": {"addr:city": "Berlin", "addr:country": "DE", "addr:housenumber": "55", "addr:postcode": "10117", "addr:street": "Mittelstra\u00dfe", "addr:suburb": "Mitte", "amenity": "restaurant", "check_date": "2025-06-30", "check_date:smoking": "2025-06-30", "contact:facebook": "https://www.facebook.com/Treffpunkt-Berlin-Alt-Berliner-Kneipe-255598957789188/timeline?ref=page_internal", "cuisine": "regional", "delivery": "no", "description": "Alt-Berliner Kneipe", "food": "yes", "indoor_seating": "yes", "name": "Treffpunkt Berlin", "opening_hours": "Mo-We 16:00-24:00, Th-Sa 12:00-24:00", "outdoor_seating": "yes", "phone": "+49 30 204 1819", "smoking": "no", "surveillance": "outdoor", "takeaway": "no", "wheelchair": "no"}}, {"type": "node", "id": 380498298, "lat": 52.5185603, "lon": 13.3879579, "tags": {"addr:city": "Berlin", "addr:country": "DE", "addr:housenumber": "151", "addr:postcode": "10117", "addr:street": "Friedrichstra\u00dfe", "addr:suburb": "Mitte", "amenity": "pharmacy", "check_date": "2025-07-22", "check_date:opening_hours": "2025-07-22", "dispensing": "yes", "healthcare": "pharmacy", "name": "Dorotheenstadt Apotheke", "opening_hours": "Mo-Fr 08:00-19:00, Sa 09:00-14:00", "operator": "Ulrike Uhlig", "phone": "+49 30 20453401", "surveillance": "indoor", "toilets:wheelchair": "no", "website": "http://www.dorotheenstaedtische-apotheke.de/", "wheelchair": "yes"}}, {"type": "node", "id": 380498345, "lat": 52.5247199, "lon": 13.3794578, "tags": {"addr:city": "Berlin", "addr:housenumber": "54/55", "addr:postcode": "10117", "addr:street": "Luisenstra\u00dfe", "amenity": "pharmacy", "check_date": "2024-07-29", "check_date:opening_hours": "2024-07-29", "contact:phone": "+49 30 28390048", "dispensing": "yes", "email": "an-der-charite@mediosapotheke.de", "healthcare": "pharmacy", "name": "MediosApotheke", "opening_hours": "Mo-Fr 08:00-19:00; Sa 09:00-14:00", "payment:cash": "yes", "payment:credit_cards": "yes", "payment:debit_cards": "yes", "payment:mastercard": "yes", "payment:visa": "yes", "surveillance": "indoor", "website": "https://www.mediosapotheke.de/", "wheelchair": "yes"}}, {"type": "node", "id": 385406320, "lat": 52.5339232, "lon": 13.4020087, "tags": {"amenity": "restaurant", "cuisine": "italian", "indoor_seating": "yes", "name": "Alimentari", "outdoor_seating": "yes", "wheelchair": "limited"}}, {"type": "node", "id": 387487628, "lat": 52.5095598, "lon": 13.3797813, "tags": {"addr:city": "Berlin", "addr:country": "DE", "addr:housenumber": "11", "addr:postcode": "10117", "addr:street": "Leipziger Platz", "addr:suburb": "Mitte", "amenity": "cafe", "indoor_seating": "yes", "name": "eleven", "opening_hours": "Mo-Fr 08:00+; Sa,Su 10:00+", "outdoor_seating": "yes", "website": "https://www.elevenbar.de/", "wheelchair": "yes"}}, {"type": "node", "id": 387772992, "lat": 52.5226168, "lon": 13.3882443, "tags": {"addr:city": "Berlin", "addr:country": "DE", "addr:housenumber": "106", "addr:street": "Friedrichstra\u00dfe", "addr:suburb": "Mitte", "amenity": "restaurant", "bar": "yes", "contact:phone": "+49 30 40520594", "contact:website": "http://italofritzen.com/", "cuisine": "pizza;italian", "indoor_seating": "yes", "name": "Italofritzen", "opening_hours": "07:00-24:00", "outdoor_seating": "yes", "smoking": "no", "toilets:wheelchair": "yes", "wheelchair": "yes"}}, {"type": "node", "id": 388567881, "lat": 52.5350189, "lon": 13.3673445}, {"type": "node", "id": 388567882, "lat": 52.5359155, "lon": 13.366299}, {"type": "node", "id": 388569472, "lat": 52.5337778, "lon": 13.3686246}, {"type": "node", "id": 409492742, "lat": 52.5326292, "lon": 13.3850593}, {"type": "node", "id": 409496842, "lat": 52.5357694, "lon": 13.3822914},